~Version Information
VERS .            2.00                          : CWLS Log ASCII Standard - Version 2.00
WRAP .            NO                            : One line per depth step
#
~Well Information
#MNEM.UNIT        DATA                           : DESCRIPTION
#----.----        ----                           : -----------
STRT .M             -5.000                       : Start
STOP .M             43.475                       : Stop
STEP .M              0.025                       : Step increment
NULL .            -999.250                       : Null value
COMP .            IODP Expedition 347 Baltic Sea : Company
WELL .            BSB-7/Hole 65A                 : Well
FLD  .            Sweden                         : Field
PROV .            Sweden                         : Province
CTRY .            Sweden                         : State / Country
LOC  .                                           : Location
LOC2 .                                           : Location 2
SRVC .            Weatherford                    : Service company
UWI  .                                           : Unique Well ID
LATI .            55 28.094 N                    : Latitude
LONG .            15 28.631 E                    : Longitude
UTME .                                           : Universal Transverse Mercator Easting
UTMN .                                           : Universal Transverse Mercator Northing
DATE .            24-Oct-2013                    : Logging Date
#
~Curve Information
#MNEM.UNIT        API CODES                     : CURVE DESCRIPTION
#----.----        ---------                     : -----------------
DEPT .M           00 001 00 00                  : Logged depth
SMTU .LB          30 635 00 00                  : DST Uphole Tension
GRGC .GAPI        30 310 01 00                  : Gamma Ray
VEC0 .OHMM        07 120 00 00                  : Shallow Induction
RILM .OHMM        07 120 44 00                  : Medium Induction
RILD .OHMM        07 120 46 00                  : Deep Induction
BIT  .IN          70 282 00 00                  : Bit size
#
~Parameter Information
#MNEM.UNIT        VALUE                         : DESCRIPTION
#----.----        -----                         : -----------
RNID .                                          : Run ID
SON  .            50004126                      : Job Number
DREF .            GL                            : Depth reference
EREF .M                 0.000                   : Elevation of depth reference
GL   .M                 0.000                   : Ground elevation
RUN  .                  1                       : Run number
TDD  .M                77.000                   : TD (driller)
TDL  .M                42.900                   : TD (logger)
BS   .IN                8.500                   : Bit size
TIMC .                                          : Time circulation ended
TIML .                                          : Time logger at bottom
UNIT .              16104                       : Equipment ID
BASE .                                          : Equipment base location
ENG  .            C.Sedlatschek                 : Recording engineer
WIT  .            A.Fehr                        : Witnessed by
CSGT .                                          : Casing type
CSGS .IN                5.500                   : Casing size
CSGW .LB/FT            23.001                   : Casing weight
CSGD .M                15.100                   : Casing bottom (driller)
CSGL .M                15.100                   : Casing bottom (logger)
CSUP .M           -999999.000                   : Casing Stick Up GL
MUD  .            Sea Water                     : Mud type
MUDS .                                          : Mud sample source
MUDD .G/C3        -999999.000                   : Mud density
MUDV .CP          -999999.000                   : Mud viscosity
PH   .            -999999.000                   : Mud pH
FL   .ML/30MIN    -999999.000                   : Mud fluid loss rate
RM   .OHMM        -999999.000                   : Mud resistivity
RMT  .DEGC        -999999.000                   : Mud sample temperature
RMF  .OHMM        -999999.000                   : Mud filtrate resistivity
RMFT .DEGC        -999999.000                   : Mud filtrate sample temperature
RMC  .OHMM        -999999.000                   : Mud cake resistivity
RMCT .DEGC        -999999.000                   : Mud cake sample temperature
TMAX .DEGC        -999999.000                   : Max recorded temperature
#
~Other Information
--------------------------------------------------------------------------------
1. Well Manager Version 13.07.1135.
2. Log correlated to drill bit depth at 15.11m.
3. Depth Offset for Resistivity Log DO = +1.5m.
--------------------------------------------------------------------------------
#
#          DEPT           SMTU           GRGC           VEC0           RILM           RILD            BIT
#
~ASCII Log Data
# ...
         31.100     369.195007      96.445358       5.170934       5.299076       5.294878       8.500000
         31.125     369.506256      97.136894       5.175760       5.305198       5.305886       8.500000
         31.150     370.116241      99.652634       5.168983       5.306543       5.312660       8.500000
         31.175     370.111237     104.457451       5.180109       5.323881       5.328057       8.500000
         31.200     371.241241     108.487267       5.188040       5.332127       5.345029       8.500000
         31.225     371.765015     110.516228       5.205227       5.349795       5.360637       8.500000
         31.250     372.258759     110.612740       5.225906       5.360170       5.374471       8.500000
         31.275     373.146240     110.307884       5.249022       5.383209       5.400435       8.500000
         31.300     373.586243     108.272049       5.271437       5.398788       5.423854       8.500000
         31.325     374.126251     104.378532       5.290966       5.413681       5.436447       8.500000
         31.350     374.578735     100.886391       5.312831       5.435020       5.455331       8.500000
         31.375     375.076263      99.376381       5.337968       5.464937       5.483018       8.500000
         31.400     376.177490      99.447998       5.345535       5.482829       5.499846       8.500000
         31.425     376.331238     102.161446       5.359017       5.497662       5.509676       8.500000
         31.450     376.307495     106.564339       5.388302       5.536068       5.543547       8.500000
         31.475     376.313751     111.149178       5.440312       5.588282       5.592030       8.500000
         31.500     376.321259     115.375404       5.484972       5.636338       5.635614       8.500000
         31.525     376.355011     116.480736       5.525050       5.672989       5.664653       8.500000
         31.550     377.026245     116.529327       5.544511       5.704645       5.699856       8.500000
         31.575     376.353760     116.090408       5.557305       5.716369       5.715336       8.500000
         31.600     375.829987     117.005501       5.574901       5.733424       5.736299       8.500000
         31.625     375.698761     116.051323       5.600264       5.759796       5.761230       8.500000
         31.650     375.089996     115.767143       5.644710       5.812316       5.809980       8.500000
         31.675     374.191254     114.368355       5.676794       5.845208       5.838721       8.500000
         31.700     373.428741     113.744308       5.721650       5.896554       5.888660       8.500000
         31.725     373.221252     112.577385       5.741538       5.922295       5.910788       8.500000
         31.750     373.220001     113.656151       5.776124       5.965357       5.940370       8.500000
         31.775     372.250000     114.129898       5.792871       5.975654       5.954032       8.500000
         31.800     372.242493     112.384041       5.821189       5.997272       5.976592       8.500000
         31.825     371.613739     106.747932       5.842022       6.014036       5.995419       8.500000
         31.850     370.223755     103.505150       5.856538       6.032935       6.022439       8.500000
         31.875     369.752502     100.836700       5.857236       6.024231       6.031776       8.500000
         31.900     368.588745     101.631569       5.858046       6.027133       6.035686       8.500000
         31.925     368.106262     102.699692       5.869859       6.046036       6.053746       8.500000
         31.950     367.227509     104.190193       5.862514       6.051476       6.060293       8.500000
         31.975     366.723755     103.167969       5.861060       6.050323       6.064472       8.500000
         32.000     366.272491     103.407471       5.851696       6.045667       6.067331       8.500000
         32.025     365.166260     103.651489       5.845365       6.049653       6.081060       8.500000
         32.050     365.105011     105.366730       5.831428       6.050652       6.091206       8.500000
         32.075     364.143738     107.749886       5.837532       6.051928       6.100321       8.500000
         32.100     364.143738     109.484894       5.847883       6.059296       6.115029       8.500000
         32.125     364.167511     112.134247       5.827959       6.054224       6.124392       8.500000
         32.150     364.156250     113.564819       5.815478       6.038325       6.127418       8.500000
         32.175     364.136261     116.931618       5.803214       6.010221       6.117661       8.500000
         32.200     363.244995     119.934364       5.782665       5.991695       6.119515       8.500000
         32.225     363.136261     123.673019       5.767259       5.980141       6.115579       8.500000
         32.250     363.130005     123.003136       5.770757       5.974307       6.111881       8.500000
         32.275     362.156250     121.229073       5.754371       5.958688       6.104573       8.500000
         32.300     361.233765     117.124603       5.748507       5.959723       6.112254       8.500000
         32.325     361.114990     114.610619       5.724574       5.944034       6.106736       8.500000
         32.350     360.048737     114.154526       5.694352       5.922242       6.109520       8.500000
         32.375     359.911255     116.324432       5.666681       5.894087       6.103203       8.500000
         32.400     359.046265     119.657188       5.652052       5.882021       6.100323       8.500000
         32.425     359.035004     121.732460       5.621404       5.855679       6.099292       8.500000
         32.450     358.626251     121.209457       5.595761       5.831533       6.110400       8.500000
         32.475     358.083740     118.664429       5.572811       5.804096       6.103561       8.500000
         32.500     357.595001     115.512550       5.544884       5.788076       6.108854       8.500000
         32.525     356.502502     111.847801       5.521728       5.770271       6.126834       8.500000
         32.550     355.217499     109.016602       5.488555       5.746225       6.126567       8.500000
         32.575     355.232513     105.948151       5.460257       5.723191       6.116511       8.500000
         32.600     354.083740     105.295151       5.448957       5.730050       6.145627       8.500000
         32.625     353.402496     104.737007       5.442521       5.721402       6.159745       8.500000
         32.650     352.418762     107.127083       5.421678       5.717560       6.172339       8.500000
         32.675     352.137512     112.304619       5.423798       5.728760       6.212029       8.500000
         32.700     351.429993     120.018074       5.439486       5.751068       6.263174       8.500000
         32.725     351.177490     124.847900       5.419755       5.735558       6.267056       8.500000
         32.750     350.447510     125.660385       5.397907       5.746118       6.309748       8.500000
         32.775     350.012512     123.602921       5.390480       5.758544       6.356972       8.500000
         32.800     350.012512     117.478798       5.395626       5.792047       6.409623       8.500000
         32.825     349.048737     112.915337       5.388695       5.810081       6.455875       8.500000
         32.850     347.637512     111.734161       5.382342       5.839108       6.513534       8.500000
         32.875     347.131256     112.115089       5.388263       5.871600       6.563079       8.500000
         32.900     347.237488     111.686409       5.389073       5.900700       6.613693       8.500000
         32.925     348.065002     110.074074       5.400462       5.925456       6.659299       8.500000
         32.950     347.130005     111.620270       5.409001       5.964770       6.709366       8.500000
         32.975     347.140015     109.214211       5.437659       6.011636       6.768679       8.500000
