~Version Information
VERS .            2.00                          : CWLS Log ASCII Standard - Version 2.00
WRAP .            NO                            : One line per depth step
#
~Well Information
#MNEM.UNIT        DATA                           : DESCRIPTION
#----.----        ----                           : -----------
STRT .M             -5.000                       : Start
STOP .M             43.475                       : Stop
STEP .M              0.025                       : Step increment
NULL .            -999.250                       : Null value
COMP .            IODP Expedition 347 Baltic Sea : Company
WELL .            BSB-7/Hole 65A                 : Well
FLD  .            Sweden                         : Field
PROV .            Sweden                         : Province
CTRY .            Sweden                         : State / Country
LOC  .                                           : Location
LOC2 .                                           : Location 2
SRVC .            Weatherford                    : Service company
UWI  .                                           : Unique Well ID
LATI .            55 28.094 N                    : Latitude
LONG .            15 28.631 E                    : Longitude
UTME .                                           : Universal Transverse Mercator Easting
UTMN .                                           : Universal Transverse Mercator Northing
DATE .            24-Oct-2013                    : Logging Date
#
~Curve Information
#MNEM.UNIT        API CODES                     : CURVE DESCRIPTION
#----.----        ---------                     : -----------------
DEPT .M           00 001 00 00                  : Logged depth
SMTU .LB          30 635 00 00                  : DST Uphole Tension
GRGC .GAPI        30 310 01 00                  : Gamma Ray
VEC0 .OHMM        07 120 00 00                  : Shallow Induction
RILM .OHMM        07 120 44 00                  : Medium Induction
RILD .OHMM        07 120 46 00                  : Deep Induction
BIT  .IN          70 282 00 00                  : Bit size
#
~Parameter Information
#MNEM.UNIT        VALUE                         : DESCRIPTION
#----.----        -----                         : -----------
RNID .                                          : Run ID
SON  .            50004126                      : Job Number
DREF .            GL                            : Depth reference
EREF .M                 0.000                   : Elevation of depth reference
GL   .M                 0.000                   : Ground elevation
RUN  .                  1                       : Run number
TDD  .M                77.000                   : TD (driller)
TDL  .M                42.900                   : TD (logger)
BS   .IN                8.500                   : Bit size
TIMC .                                          : Time circulation ended
TIML .                                          : Time logger at bottom
UNIT .              16104                       : Equipment ID
BASE .                                          : Equipment base location
ENG  .            C.Sedlatschek                 : Recording engineer
WIT  .            A.Fehr                        : Witnessed by
CSGT .                                          : Casing type
CSGS .IN                5.500                   : Casing size
CSGW .LB/FT            23.001                   : Casing weight
CSGD .M                15.100                   : Casing bottom (driller)
CSGL .M                15.100                   : Casing bottom (logger)
CSUP .M           -999999.000                   : Casing Stick Up GL
MUD  .            Sea Water                     : Mud type
MUDS .                                          : Mud sample source
MUDD .G/C3        -999999.000                   : Mud density
MUDV .CP          -999999.000                   : Mud viscosity
PH   .            -999999.000                   : Mud pH
FL   .ML/30MIN    -999999.000                   : Mud fluid loss rate
RM   .OHMM        -999999.000                   : Mud resistivity
RMT  .DEGC        -999999.000                   : Mud sample temperature
RMF  .OHMM        -999999.000                   : Mud filtrate resistivity
RMFT .DEGC        -999999.000                   : Mud filtrate sample temperature
RMC  .OHMM        -999999.000                   : Mud cake resistivity
RMCT .DEGC        -999999.000                   : Mud cake sample temperature
TMAX .DEGC        -999999.000                   : Max recorded temperature
#
~Other Information
--------------------------------------------------------------------------------
1. Well Manager Version 13.07.1135.
2. Log correlated to drill bit depth at 15.11m.
3. Depth Offset for Resistivity Log DO = +1.5m.
--------------------------------------------------------------------------------
#
#          DEPT           SMTU           GRGC           VEC0           RILM           RILD            BIT
#
~ASCII Log Data
# ...
         15.900     358.075012     101.140137       1.854567       1.825222       1.846625       8.500000
         15.925     358.082489     101.564140       1.856584       1.826518       1.848973       8.500000
         15.950     358.571259     100.564590       1.859102       1.827854       1.851148       8.500000
         15.975     359.375000     100.948959       1.861992       1.830763       1.855435       8.500000
         16.000     360.692505      99.506981       1.866456       1.835494       1.859347       8.500000
         16.025     361.508759      99.030106       1.870212       1.839595       1.862742       8.500000
         16.050     362.723755      94.964363       1.871449       1.842258       1.866827       8.500000
         16.075     364.317505      93.997795       1.874632       1.844727       1.869628       8.500000
         16.100     365.707489      94.507813       1.876261       1.846262       1.871573       8.500000
         16.125     366.278748      99.539818       1.877153       1.846816       1.872850       8.500000
         16.150     366.811249     104.876846       1.878657       1.849270       1.876055       8.500000
         16.175     366.876251     114.789650       1.881204       1.851580       1.877957       8.500000
         16.200     366.271240     120.529945       1.883648       1.855538       1.882914       8.500000
         16.225     366.271240     121.215446       1.888542       1.860417       1.888869       8.500000
         16.250     367.786255     117.148544       1.894881       1.865674       1.893578       8.500000
         16.275     369.019989     114.127647       1.896860       1.867979       1.895231       8.500000
         16.300     369.707489     110.066261       1.899319       1.871687       1.898267       8.500000
         16.325     369.707489     107.891747       1.902093       1.875558       1.901339       8.500000
         16.350     370.296265     105.272881       1.903247       1.877308       1.902670       8.500000
         16.375     371.331238     103.588898       1.905628       1.879391       1.905200       8.500000
         16.400     372.193756     100.062874       1.911510       1.883452       1.909339       8.500000
         16.425     372.261261      98.165154       1.916820       1.886886       1.912643       8.500000
         16.450     373.152496      99.956352       1.920255       1.890555       1.915986       8.500000
         16.475     373.179993     104.251549       1.924724       1.894347       1.919019       8.500000
         16.500     372.253754     107.552391       1.927244       1.898825       1.923476       8.500000
         16.525     372.243744     108.169556       1.929255       1.902222       1.927427       8.500000
         16.550     372.225006     105.858116       1.931143       1.905473       1.930805       8.500000
         16.575     372.696259     103.027428       1.932253       1.906052       1.932624       8.500000
         16.600     373.757507      99.028915       1.931064       1.907190       1.934155       8.500000
         16.625     374.217499      97.592056       1.929591       1.906414       1.933450       8.500000
         16.650     375.079987      98.964020       1.927405       1.904126       1.931956       8.500000
         16.675     376.428741     103.815285       1.924834       1.901642       1.931531       8.500000
         16.700     377.233765     105.884773       1.926681       1.903621       1.933795       8.500000
         16.725     377.762512     107.313957       1.930369       1.905871       1.936837       8.500000
         16.750     378.956238     107.712326       1.930894       1.906936       1.939325       8.500000
         16.775     378.956238     109.581261       1.932401       1.909423       1.942418       8.500000
         16.800     380.128754     108.699577       1.934595       1.912089       1.945664       8.500000
         16.825     380.137512     109.034157       1.935630       1.913063       1.947815       8.500000
         16.850     380.596252     110.131760       1.936641       1.915250       1.950736       8.500000
         16.875     381.293762     112.154564       1.937963       1.916609       1.953837       8.500000
         16.900     381.288757     112.565346       1.939212       1.918319       1.956795       8.500000
         16.925     381.811249     112.347466       1.940918       1.921225       1.960965       8.500000
         16.950     382.668762     111.758263       1.941457       1.922322       1.965449       8.500000
         16.975     383.250000     110.131348       1.942603       1.924763       1.971173       8.500000
         17.000     383.250000     107.854088       1.945858       1.929191       1.978032       8.500000
         17.025     383.268738     104.432175       1.949890       1.932783       1.983321       8.500000
         17.050     383.258759     103.957954       1.951438       1.935424       1.988106       8.500000
         17.075     383.257507     103.429733       1.953623       1.939637       1.992076       8.500000
         17.100     382.492493     106.885628       1.954078       1.940786       1.994493       8.500000
         17.125     381.272491     107.950150       1.955111       1.942920       1.996554       8.500000
         17.150     380.306244     108.329071       1.956933       1.948459       2.002488       8.500000
         17.175     379.019989     106.016167       1.963271       1.954784       2.008487       8.500000
         17.200     378.211243     104.385689       1.968711       1.962282       2.015416       8.500000
         17.225     378.204987     101.730804       1.976169       1.971329       2.023550       8.500000
         17.250     377.476257     100.576607       1.984728       1.979897       2.030921       8.500000
         17.275     376.670013     100.469551       1.990949       1.985570       2.036153       8.500000
         17.300     376.406250     102.488213       1.996060       1.991779       2.041729       8.500000
         17.325     376.902496     103.646385       2.004101       1.998328       2.048002       8.500000
         17.350     377.261261     106.006126       2.011574       2.003946       2.051893       8.500000
         17.375     377.265015     108.552193       2.017286       2.009542       2.056866       8.500000
         17.400     377.274994     112.557404       2.024164       2.015431       2.062874       8.500000
         17.425     377.274994     112.424156       2.032112       2.021319       2.068858       8.500000
         17.450     377.274994     110.754807       2.039667       2.028168       2.074451       8.500000
         17.475     377.041260     106.159454       2.045388       2.033464       2.079464       8.500000
         17.500     376.337494     102.848984       2.051089       2.040638       2.086438       8.500000
         17.525     376.334991     100.287140       2.055913       2.046849       2.092415       8.500000
         17.550     376.345001      97.850471       2.059904       2.053950       2.100299       8.500000
         17.575     376.333740      96.701172       2.062525       2.057952       2.105325       8.500000
         17.600     376.348755      96.832230       2.066595       2.064305       2.111638       8.500000
         17.625     375.083740     100.817970       2.067818       2.066573       2.114648       8.500000
         17.650     375.084991     105.171242       2.071680       2.070388       2.118455       8.500000
         17.675     375.071259     111.047935       2.072915       2.071933       2.119905       8.500000
         17.700     375.089996     114.360107       2.074892       2.074927       2.123371       8.500000
         17.725     374.149994     113.447594       2.074536       2.074257       2.124627       8.500000
         17.750     373.327515     108.126839       2.078304       2.076544       2.125613       8.500000
         17.775     372.878754     101.151390       2.081672       2.080101       2.129819       8.500000
