~Version Information
VERS .            2.00                          : CWLS Log ASCII Standard - Version 2.00
WRAP .            NO                            : One line per depth step
#
~Well Information
#MNEM.UNIT        DATA                           : DESCRIPTION
#----.----        ----                           : -----------
STRT .M             -5.000                       : Start
STOP .M             43.475                       : Stop
STEP .M              0.025                       : Step increment
NULL .            -999.250                       : Null value
COMP .            IODP Expedition 347 Baltic Sea : Company
WELL .            BSB-7/Hole 65A                 : Well
FLD  .            Sweden                         : Field
PROV .            Sweden                         : Province
CTRY .            Sweden                         : State / Country
LOC  .                                           : Location
LOC2 .                                           : Location 2
SRVC .            Weatherford                    : Service company
UWI  .                                           : Unique Well ID
LATI .            55 28.094 N                    : Latitude
LONG .            15 28.631 E                    : Longitude
UTME .                                           : Universal Transverse Mercator Easting
UTMN .                                           : Universal Transverse Mercator Northing
DATE .            24-Oct-2013                    : Logging Date
#
~Curve Information
#MNEM.UNIT        API CODES                     : CURVE DESCRIPTION
#----.----        ---------                     : -----------------
DEPT .M           00 001 00 00                  : Logged depth
SMTU .LB          30 635 00 00                  : DST Uphole Tension
GRGC .GAPI        30 310 01 00                  : Gamma Ray
VEC0 .OHMM        07 120 00 00                  : Shallow Induction
RILM .OHMM        07 120 44 00                  : Medium Induction
RILD .OHMM        07 120 46 00                  : Deep Induction
BIT  .IN          70 282 00 00                  : Bit size
#
~Parameter Information
#MNEM.UNIT        VALUE                         : DESCRIPTION
#----.----        -----                         : -----------
RNID .                                          : Run ID
SON  .            50004126                      : Job Number
DREF .            GL                            : Depth reference
EREF .M                 0.000                   : Elevation of depth reference
GL   .M                 0.000                   : Ground elevation
RUN  .                  1                       : Run number
TDD  .M                77.000                   : TD (driller)
TDL  .M                42.900                   : TD (logger)
BS   .IN                8.500                   : Bit size
TIMC .                                          : Time circulation ended
TIML .                                          : Time logger at bottom
UNIT .              16104                       : Equipment ID
BASE .                                          : Equipment base location
ENG  .            C.Sedlatschek                 : Recording engineer
WIT  .            A.Fehr                        : Witnessed by
CSGT .                                          : Casing type
CSGS .IN                5.500                   : Casing size
CSGW .LB/FT            23.001                   : Casing weight
CSGD .M                15.100                   : Casing bottom (driller)
CSGL .M                15.100                   : Casing bottom (logger)
CSUP .M           -999999.000                   : Casing Stick Up GL
MUD  .            Sea Water                     : Mud type
MUDS .                                          : Mud sample source
MUDD .G/C3        -999999.000                   : Mud density
MUDV .CP          -999999.000                   : Mud viscosity
PH   .            -999999.000                   : Mud pH
FL   .ML/30MIN    -999999.000                   : Mud fluid loss rate
RM   .OHMM        -999999.000                   : Mud resistivity
RMT  .DEGC        -999999.000                   : Mud sample temperature
RMF  .OHMM        -999999.000                   : Mud filtrate resistivity
RMFT .DEGC        -999999.000                   : Mud filtrate sample temperature
RMC  .OHMM        -999999.000                   : Mud cake resistivity
RMCT .DEGC        -999999.000                   : Mud cake sample temperature
TMAX .DEGC        -999999.000                   : Max recorded temperature
#
~Other Information
--------------------------------------------------------------------------------
1. Well Manager Version 13.07.1135.
2. Log correlated to drill bit depth at 15.11m.
3. Depth Offset for Resistivity Log DO = +1.5m.
--------------------------------------------------------------------------------
#
#          DEPT           SMTU           GRGC           VEC0           RILM           RILD            BIT
#
~ASCII Log Data
# ...
          0.700     292.408752      14.915804    -999.250000    -999.250000    -999.250000       8.500000
          0.725     293.496246      16.751646    -999.250000    -999.250000    -999.250000       8.500000
          0.750     292.981262      17.852978    -999.250000    -999.250000    -999.250000       8.500000
          0.775     293.450012      17.677362    -999.250000    -999.250000    -999.250000       8.500000
          0.800     293.911255      16.583530    -999.250000    -999.250000    -999.250000       8.500000
          0.825     295.122498      14.939325    -999.250000    -999.250000    -999.250000       8.500000
          0.850     295.845001      12.890783    -999.250000    -999.250000    -999.250000       8.500000
          0.875     295.837494      11.209497    -999.250000    -999.250000    -999.250000       8.500000
          0.900     295.861237      10.139664    -999.250000    -999.250000    -999.250000       8.500000
          0.925     296.779999      10.860789    -999.250000    -999.250000    -999.250000       8.500000
          0.950     296.727509      11.422913    -999.250000    -999.250000    -999.250000       8.500000
          0.975     295.845001      12.136804    -999.250000    -999.250000    -999.250000       8.500000
          1.000     295.146240      12.505732    -999.250000    -999.250000    -999.250000       8.500000
          1.025     295.832489      14.110679    -999.250000    -999.250000    -999.250000       8.500000
          1.050     295.852509      15.258554    -999.250000    -999.250000    -999.250000       8.500000
          1.075     295.855011      16.022230    -999.250000    -999.250000    -999.250000       8.500000
          1.100     295.858765      16.076292    -999.250000    -999.250000    -999.250000       8.500000
          1.125     295.616241      16.059500    -999.250000    -999.250000    -999.250000       8.500000
          1.150     294.873749      15.745438    -999.250000    -999.250000    -999.250000       8.500000
          1.175     294.864990      15.015265    -999.250000    -999.250000    -999.250000       8.500000
          1.200     294.872498      14.277478    -999.250000    -999.250000    -999.250000       8.500000
          1.225     294.875000      13.355552    -999.250000    -999.250000    -999.250000       8.500000
          1.250     294.869995      13.033218    -999.250000    -999.250000    -999.250000       8.500000
          1.275     294.873749      13.033145    -999.250000    -999.250000    -999.250000       8.500000
          1.300     294.290009      12.482407    -999.250000    -999.250000    -999.250000       8.500000
          1.325     294.557495      12.849662    -999.250000    -999.250000    -999.250000       8.500000
          1.350     294.841248      13.033362    -999.250000    -999.250000    -999.250000       8.500000
          1.375     294.841248      13.950482    -999.250000    -999.250000    -999.250000       8.500000
          1.400     293.908752      12.872847    -999.250000    -999.250000    -999.250000       8.500000
          1.425     293.912506      12.331013    -999.250000    -999.250000    -999.250000       8.500000
          1.450     293.809998      11.104282    -999.250000    -999.250000    -999.250000       8.500000
          1.475     292.720001      12.340335    -999.250000    -999.250000    -999.250000       8.500000
          1.500     293.832489      13.256926    -999.250000    -999.250000    -999.250000       8.500000
          1.525     293.872498      15.018637    -999.250000    -999.250000    -999.250000       8.500000
          1.550     293.882507      15.203613    -999.250000    -999.250000    -999.250000       8.500000
          1.575     293.897491      15.531274    -999.250000    -999.250000    -999.250000       8.500000
          1.600     293.882507      14.864227    -999.250000    -999.250000    -999.250000       8.500000
          1.625     294.657501      14.487621    -999.250000    -999.250000    -999.250000       8.500000
          1.650     295.451263      14.151084    -999.250000    -999.250000    -999.250000       8.500000
          1.675     295.882507      15.222591    -999.250000    -999.250000    -999.250000       8.500000
          1.700     297.461243      15.603344    -999.250000    -999.250000    -999.250000       8.500000
          1.725     296.950012      15.768923    -999.250000    -999.250000    -999.250000       8.500000
          1.750     297.704987      14.495522    -999.250000    -999.250000    -999.250000       8.500000
          1.775     297.737488      13.596952    -999.250000    -999.250000    -999.250000       8.500000
          1.800     297.721252      12.881573    -999.250000    -999.250000    -999.250000       8.500000
          1.825     297.325012      12.995254    -999.250000    -999.250000    -999.250000       8.500000
          1.850     297.730011      12.920569    -999.250000    -999.250000    -999.250000       8.500000
          1.875     297.730011      14.064487    -999.250000    -999.250000    -999.250000       8.500000
          1.900     297.736237      15.730315    -999.250000    -999.250000    -999.250000       8.500000
          1.925     297.732513      17.098906    -999.250000    -999.250000    -999.250000       8.500000
          1.950     297.709991      17.256323    -999.250000    -999.250000    -999.250000       8.500000
          1.975     297.736237      17.333260    -999.250000    -999.250000    -999.250000       8.500000
          2.000     297.734985      16.710135    -999.250000    -999.250000    -999.250000       8.500000
          2.025     297.890015      15.411344    -999.250000    -999.250000    -999.250000       8.500000
          2.050     298.978760      13.110408    -999.250000    -999.250000    -999.250000       8.500000
          2.075     297.941254      11.874028    -999.250000    -999.250000    -999.250000       8.500000
          2.100     298.946259      10.938769    -999.250000    -999.250000    -999.250000       8.500000
          2.125     298.957489      10.417612    -999.250000    -999.250000    -999.250000       8.500000
          2.150     298.961243      10.235009    -999.250000    -999.250000    -999.250000       8.500000
          2.175     298.954987      11.835326    -999.250000    -999.250000    -999.250000       8.500000
          2.200     298.597504      13.252306    -999.250000    -999.250000    -999.250000       8.500000
          2.225     298.597504      13.750342    -999.250000    -999.250000    -999.250000       8.500000
          2.250     297.742493      13.751368    -999.250000    -999.250000    -999.250000       8.500000
          2.275     297.734985      13.714018    -999.250000    -999.250000    -999.250000       8.500000
          2.300     296.763763      13.928226    -999.250000    -999.250000    -999.250000       8.500000
          2.325     295.869995      13.957857    -999.250000    -999.250000    -999.250000       8.500000
          2.350     295.092499      14.393192    -999.250000    -999.250000    -999.250000       8.500000
          2.375     294.873749      14.898461    -999.250000    -999.250000    -999.250000       8.500000
          2.400     294.568756      16.175447    -999.250000    -999.250000    -999.250000       8.500000
          2.425     293.907501      16.166742    -999.250000    -999.250000    -999.250000       8.500000
          2.450     293.898743      16.020391    -999.250000    -999.250000    -999.250000       8.500000
          2.475     293.902496      15.233636    -999.250000    -999.250000    -999.250000       8.500000
          2.500     293.903748      15.593388    -999.250000    -999.250000    -999.250000       8.500000
          2.525     293.896240      15.219503    -999.250000    -999.250000    -999.250000       8.500000
          2.550     293.897491      15.213021    -999.250000    -999.250000    -999.250000       8.500000
          2.575     293.891235      15.712322    -999.250000    -999.250000    -999.250000       8.500000
