~Version Information
VERS .            2.00                          : CWLS Log ASCII Standard - Version 2.00
WRAP .            NO                            : One line per depth step
#
~Well Information
#MNEM.UNIT        DATA                           : DESCRIPTION
#----.----        ----                           : -----------
STRT .M             -5.000                       : Start
STOP .M             43.475                       : Stop
STEP .M              0.025                       : Step increment
NULL .            -999.250                       : Null value
COMP .            IODP Expedition 347 Baltic Sea : Company
WELL .            BSB-7/Hole 65A                 : Well
FLD  .            Sweden                         : Field
PROV .            Sweden                         : Province
CTRY .            Sweden                         : State / Country
LOC  .                                           : Location
LOC2 .                                           : Location 2
SRVC .            Weatherford                    : Service company
UWI  .                                           : Unique Well ID
LATI .            55 28.094 N                    : Latitude
LONG .            15 28.631 E                    : Longitude
UTME .                                           : Universal Transverse Mercator Easting
UTMN .                                           : Universal Transverse Mercator Northing
DATE .            24-Oct-2013                    : Logging Date
#
~Curve Information
#MNEM.UNIT        API CODES                     : CURVE DESCRIPTION
#----.----        ---------                     : -----------------
DEPT .M           00 001 00 00                  : Logged depth
SMTU .LB          30 635 00 00                  : DST Uphole Tension
GRGC .GAPI        30 310 01 00                  : Gamma Ray
VEC0 .OHMM        07 120 00 00                  : Shallow Induction
RILM .OHMM        07 120 44 00                  : Medium Induction
RILD .OHMM        07 120 46 00                  : Deep Induction
BIT  .IN          70 282 00 00                  : Bit size
#
~Parameter Information
#MNEM.UNIT        VALUE                         : DESCRIPTION
#----.----        -----                         : -----------
RNID .                                          : Run ID
SON  .            50004126                      : Job Number
DREF .            GL                            : Depth reference
EREF .M                 0.000                   : Elevation of depth reference
GL   .M                 0.000                   : Ground elevation
RUN  .                  1                       : Run number
TDD  .M                77.000                   : TD (driller)
TDL  .M                42.900                   : TD (logger)
BS   .IN                8.500                   : Bit size
TIMC .                                          : Time circulation ended
TIML .                                          : Time logger at bottom
UNIT .              16104                       : Equipment ID
BASE .                                          : Equipment base location
ENG  .            C.Sedlatschek                 : Recording engineer
WIT  .            A.Fehr                        : Witnessed by
CSGT .                                          : Casing type
CSGS .IN                5.500                   : Casing size
CSGW .LB/FT            23.001                   : Casing weight
CSGD .M                15.100                   : Casing bottom (driller)
CSGL .M                15.100                   : Casing bottom (logger)
CSUP .M           -999999.000                   : Casing Stick Up GL
MUD  .            Sea Water                     : Mud type
MUDS .                                          : Mud sample source
MUDD .G/C3        -999999.000                   : Mud density
MUDV .CP          -999999.000                   : Mud viscosity
PH   .            -999999.000                   : Mud pH
FL   .ML/30MIN    -999999.000                   : Mud fluid loss rate
RM   .OHMM        -999999.000                   : Mud resistivity
RMT  .DEGC        -999999.000                   : Mud sample temperature
RMF  .OHMM        -999999.000                   : Mud filtrate resistivity
RMFT .DEGC        -999999.000                   : Mud filtrate sample temperature
RMC  .OHMM        -999999.000                   : Mud cake resistivity
RMCT .DEGC        -999999.000                   : Mud cake sample temperature
TMAX .DEGC        -999999.000                   : Max recorded temperature
#
~Other Information
--------------------------------------------------------------------------------
1. Well Manager Version 13.07.1135.
2. Log correlated to drill bit depth at 15.11m.
3. Depth Offset for Resistivity Log DO = +1.5m.
--------------------------------------------------------------------------------
#
#          DEPT           SMTU           GRGC           VEC0           RILM           RILD            BIT
#
~ASCII Log Data
# ...
          6.400     304.945007      17.683239    -999.250000    -999.250000    -999.250000       8.500000
          6.425     304.941254      20.274479    -999.250000    -999.250000    -999.250000       8.500000
          6.450     304.947510      21.532310    -999.250000    -999.250000    -999.250000       8.500000
          6.475     304.017487      21.344135    -999.250000    -999.250000    -999.250000       8.500000
          6.500     304.036255      20.560883    -999.250000    -999.250000    -999.250000       8.500000
          6.525     304.032501      18.356390    -999.250000    -999.250000    -999.250000       8.500000
          6.550     304.008759      16.152996    -999.250000    -999.250000    -999.250000       8.500000
          6.575     302.829987      13.949604    -999.250000    -999.250000    -999.250000       8.500000
          6.600     302.808746      14.014247    -999.250000    -999.250000    -999.250000       8.500000
          6.625     302.648743      13.674033    -999.250000    -999.250000    -999.250000       8.500000
          6.650     301.845001      14.619584    -999.250000    -999.250000    -999.250000       8.500000
          6.675     301.837494      14.583302    -999.250000    -999.250000    -999.250000       8.500000
          6.700     301.522491      16.602482    -999.250000    -999.250000    -999.250000       8.500000
          6.725     300.882507      17.748190    -999.250000    -999.250000    -999.250000       8.500000
          6.750     300.880005      19.114902    -999.250000    -999.250000    -999.250000       8.500000
          6.775     300.868744      19.152464    -999.250000    -999.250000    -999.250000       8.500000
          6.800     300.888763      20.795824    -999.250000    -999.250000    -999.250000       8.500000
          6.825     300.888763      21.800320    -999.250000    -999.250000    -999.250000       8.500000
          6.850     300.876251      22.373531    -999.250000    -999.250000    -999.250000       8.500000
          6.875     300.876251      22.213255    -999.250000    -999.250000    -999.250000       8.500000
          6.900     300.892487      23.013668    -999.250000    -999.250000    -999.250000       8.500000
          6.925     300.866241      24.106943    -999.250000    -999.250000    -999.250000       8.500000
          6.950     300.850006      25.251116    -999.250000    -999.250000    -999.250000       8.500000
          6.975     300.873749      25.668901    -999.250000    -999.250000    -999.250000       8.500000
          7.000     301.211243      25.843061    -999.250000    -999.250000    -999.250000       8.500000
          7.025     301.848755      24.782286    -999.250000    -999.250000    -999.250000       8.500000
          7.050     301.601257      23.171787    -999.250000    -999.250000    -999.250000       8.500000
          7.075     301.941254      20.704460    -999.250000    -999.250000    -999.250000       8.500000
          7.100     302.478760      18.320143    -999.250000    -999.250000    -999.250000       8.500000
          7.125     301.837494      17.916487    -999.250000    -999.250000    -999.250000       8.500000
          7.150     302.817505      18.605125    -999.250000    -999.250000    -999.250000       8.500000
          7.175     302.832489      19.661530    -999.250000    -999.250000    -999.250000       8.500000
          7.200     303.760010      20.938988    -999.250000    -999.250000    -999.250000       8.500000
          7.225     304.001251      22.592371    -999.250000    -999.250000    -999.250000       8.500000
          7.250     304.341248      22.646404    -999.250000    -999.250000    -999.250000       8.500000
          7.275     304.948761      22.475718    -999.250000    -999.250000    -999.250000       8.500000
          7.300     305.746246      21.936533    -999.250000    -999.250000    -999.250000       8.500000
          7.325     305.924988      22.261820    -999.250000    -999.250000    -999.250000       8.500000
          7.350     306.880005      22.443987    -999.250000    -999.250000    -999.250000       8.500000
          7.375     306.890015      22.487738    -999.250000    -999.250000    -999.250000       8.500000
          7.400     307.616241      22.296167    -999.250000    -999.250000    -999.250000       8.500000
          7.425     308.875000      21.435801    -999.250000    -999.250000    -999.250000       8.500000
          7.450     310.420013      20.348425    -999.250000    -999.250000    -999.250000       8.500000
          7.475     311.162506      19.268219    -999.250000    -999.250000    -999.250000       8.500000
          7.500     311.893738      18.857248    -999.250000    -999.250000    -999.250000       8.500000
          7.525     311.886261      19.231972    -999.250000    -999.250000    -999.250000       8.500000
          7.550     311.906250      20.320152    -999.250000    -999.250000    -999.250000       8.500000
          7.575     311.892487      19.939159    -999.250000    -999.250000    -999.250000       8.500000
          7.600     312.691254      19.550266    -999.250000    -999.250000    -999.250000       8.500000
          7.625     312.822510      18.859613    -999.250000    -999.250000    -999.250000       8.500000
          7.650     312.801239      18.904205    -999.250000    -999.250000    -999.250000       8.500000
          7.675     312.799988      17.803532    -999.250000    -999.250000    -999.250000       8.500000
          7.700     312.676239      17.039972    -999.250000    -999.250000    -999.250000       8.500000
          7.725     311.894989      16.827078    -999.250000    -999.250000    -999.250000       8.500000
          7.750     311.415009      18.081966    -999.250000    -999.250000    -999.250000       8.500000
          7.775     310.947510      18.816187    -999.250000    -999.250000    -999.250000       8.500000
          7.800     311.853760      20.379000    -999.250000    -999.250000    -999.250000       8.500000
          7.825     311.883759      21.836298    -999.250000    -999.250000    -999.250000       8.500000
          7.850     311.871246      24.030447    -999.250000    -999.250000    -999.250000       8.500000
          7.875     311.867493      24.294165    -999.250000    -999.250000    -999.250000       8.500000
          7.900     310.946259      24.663397    -999.250000    -999.250000    -999.250000       8.500000
          7.925     310.967499      23.834293    -999.250000    -999.250000    -999.250000       8.500000
          7.950     310.956238      22.774252    -999.250000    -999.250000    -999.250000       8.500000
          7.975     310.941254      19.875654    -999.250000    -999.250000    -999.250000       8.500000
          8.000     311.413757      17.479490    -999.250000    -999.250000    -999.250000       8.500000
          8.025     311.856262      15.865439    -999.250000    -999.250000    -999.250000       8.500000
          8.050     310.942505      15.539274    -999.250000    -999.250000    -999.250000       8.500000
          8.075     311.753754      16.639874    -999.250000    -999.250000    -999.250000       8.500000
          8.100     311.882507      17.781277    -999.250000    -999.250000    -999.250000       8.500000
          8.125     312.600006      19.432905    -999.250000    -999.250000    -999.250000       8.500000
          8.150     313.133759      19.801550    -999.250000    -999.250000    -999.250000       8.500000
          8.175     314.031250      20.496508    -999.250000    -999.250000    -999.250000       8.500000
          8.200     314.031250      20.681818    -999.250000    -999.250000    -999.250000       8.500000
          8.225     314.846252      21.559744    -999.250000    -999.250000    -999.250000       8.500000
          8.250     314.618744      23.357639    -999.250000    -999.250000    -999.250000       8.500000
          8.275     314.992493      24.236223    -999.250000    -999.250000    -999.250000       8.500000
