~Version Information
VERS .            2.00                          : CWLS Log ASCII Standard - Version 2.00
WRAP .            NO                            : One line per depth step
#
~Well Information
#MNEM.UNIT        DATA                           : DESCRIPTION
#----.----        ----                           : -----------
STRT .M             -5.000                       : Start
STOP .M             43.475                       : Stop
STEP .M              0.025                       : Step increment
NULL .            -999.250                       : Null value
COMP .            IODP Expedition 347 Baltic Sea : Company
WELL .            BSB-7/Hole 65A                 : Well
FLD  .            Sweden                         : Field
PROV .            Sweden                         : Province
CTRY .            Sweden                         : State / Country
LOC  .                                           : Location
LOC2 .                                           : Location 2
SRVC .            Weatherford                    : Service company
UWI  .                                           : Unique Well ID
LATI .            55 28.094 N                    : Latitude
LONG .            15 28.631 E                    : Longitude
UTME .                                           : Universal Transverse Mercator Easting
UTMN .                                           : Universal Transverse Mercator Northing
DATE .            24-Oct-2013                    : Logging Date
#
~Curve Information
#MNEM.UNIT        API CODES                     : CURVE DESCRIPTION
#----.----        ---------                     : -----------------
DEPT .M           00 001 00 00                  : Logged depth
SMTU .LB          30 635 00 00                  : DST Uphole Tension
GRGC .GAPI        30 310 01 00                  : Gamma Ray
VEC0 .OHMM        07 120 00 00                  : Shallow Induction
RILM .OHMM        07 120 44 00                  : Medium Induction
RILD .OHMM        07 120 46 00                  : Deep Induction
BIT  .IN          70 282 00 00                  : Bit size
#
~Parameter Information
#MNEM.UNIT        VALUE                         : DESCRIPTION
#----.----        -----                         : -----------
RNID .                                          : Run ID
SON  .            50004126                      : Job Number
DREF .            GL                            : Depth reference
EREF .M                 0.000                   : Elevation of depth reference
GL   .M                 0.000                   : Ground elevation
RUN  .                  1                       : Run number
TDD  .M                77.000                   : TD (driller)
TDL  .M                42.900                   : TD (logger)
BS   .IN                8.500                   : Bit size
TIMC .                                          : Time circulation ended
TIML .                                          : Time logger at bottom
UNIT .              16104                       : Equipment ID
BASE .                                          : Equipment base location
ENG  .            C.Sedlatschek                 : Recording engineer
WIT  .            A.Fehr                        : Witnessed by
CSGT .                                          : Casing type
CSGS .IN                5.500                   : Casing size
CSGW .LB/FT            23.001                   : Casing weight
CSGD .M                15.100                   : Casing bottom (driller)
CSGL .M                15.100                   : Casing bottom (logger)
CSUP .M           -999999.000                   : Casing Stick Up GL
MUD  .            Sea Water                     : Mud type
MUDS .                                          : Mud sample source
MUDD .G/C3        -999999.000                   : Mud density
MUDV .CP          -999999.000                   : Mud viscosity
PH   .            -999999.000                   : Mud pH
FL   .ML/30MIN    -999999.000                   : Mud fluid loss rate
RM   .OHMM        -999999.000                   : Mud resistivity
RMT  .DEGC        -999999.000                   : Mud sample temperature
RMF  .OHMM        -999999.000                   : Mud filtrate resistivity
RMFT .DEGC        -999999.000                   : Mud filtrate sample temperature
RMC  .OHMM        -999999.000                   : Mud cake resistivity
RMCT .DEGC        -999999.000                   : Mud cake sample temperature
TMAX .DEGC        -999999.000                   : Max recorded temperature
#
~Other Information
--------------------------------------------------------------------------------
1. Well Manager Version 13.07.1135.
2. Log correlated to drill bit depth at 15.11m.
3. Depth Offset for Resistivity Log DO = +1.5m.
--------------------------------------------------------------------------------
#
#          DEPT           SMTU           GRGC           VEC0           RILM           RILD            BIT
#
~ASCII Log Data
# ...
         23.500     385.358765      86.865120       3.034072       3.179052       3.241963       8.500000
         23.525     387.171265      87.309341       3.052699       3.199845       3.262654       8.500000
         23.550     387.171265      87.850662       3.069219       3.225608       3.290658       8.500000
         23.575     389.005005      92.498566       3.095910       3.258374       3.324853       8.500000
         23.600     389.146240      95.863640       3.122433       3.287047       3.352979       8.500000
         23.625     391.572510     100.332527       3.157275       3.324377       3.387091       8.500000
         23.650     392.852509     103.085854       3.187122       3.353576       3.419451       8.500000
         23.675     394.434998     103.836700       3.210335       3.372392       3.439386       8.500000
         23.700     395.352509     101.683357       3.236784       3.395820       3.465055       8.500000
         23.725     397.802490      98.795784       3.262211       3.417393       3.488000       8.500000
         23.750     398.396240      99.195580       3.286986       3.439676       3.511727       8.500000
         23.775     399.221252     101.214691       3.308310       3.461671       3.532513       8.500000
         23.800     400.118744     105.416908       3.330950       3.484452       3.555514       8.500000
         23.825     402.218750     108.815079       3.341314       3.497345       3.568058       8.500000
         23.850     403.612488     112.396812       3.348708       3.510850       3.583768       8.500000
         23.875     404.331238     113.061188       3.351655       3.521130       3.598357       8.500000
         23.900     405.231262     112.510529       3.360101       3.537004       3.615760       8.500000
         23.925     405.957489     109.943680       3.366518       3.552422       3.636365       8.500000
         23.950     407.598755     109.398880       3.370189       3.562089       3.653405       8.500000
         23.975     408.727509     108.122345       3.375724       3.571135       3.670824       8.500000
         24.000     409.265015     106.842880       3.370913       3.565526       3.675522       8.500000
         24.025     411.619995     105.376930       3.370289       3.558197       3.677507       8.500000
         24.050     413.161255     106.108521       3.366193       3.552248       3.681034       8.500000
         24.075     414.394989     105.735840       3.364062       3.549713       3.690194       8.500000
         24.100     415.503754     104.626450       3.364151       3.550599       3.699870       8.500000
         24.125     416.644989     104.801430       3.366180       3.552615       3.706487       8.500000
         24.150     418.272491     108.466904       3.365543       3.552894       3.713901       8.500000
         24.175     419.366241     113.238823       3.364516       3.551571       3.718776       8.500000
         24.200     419.375000     117.830338       3.360097       3.548933       3.717542       8.500000
         24.225     419.390015     121.871178       3.356283       3.546846       3.722623       8.500000
         24.250     419.367493     123.526329       3.356164       3.552507       3.738574       8.500000
         24.275     419.358765     122.629494       3.357592       3.562886       3.755223       8.500000
         24.300     420.276245     120.231934       3.360351       3.568647       3.768497       8.500000
         24.325     420.326263     118.935944       3.366824       3.572617       3.780106       8.500000
         24.350     420.311249     117.619499       3.371101       3.570510       3.783895       8.500000
         24.375     419.978760     116.702446       3.372126       3.567219       3.789766       8.500000
         24.400     419.128754     115.231377       3.373741       3.564556       3.797150       8.500000
         24.425     418.125000     114.896561       3.381298       3.569080       3.802232       8.500000
         24.450     417.471252     112.172157       3.392034       3.575341       3.813517       8.500000
         24.475     416.586243     109.887329       3.405219       3.589433       3.833162       8.500000
         24.500     417.420013     108.647423       3.426128       3.605422       3.847498       8.500000
         24.525     417.475006     109.980659       3.446243       3.620712       3.858476       8.500000
         24.550     418.011261     110.507195       3.459256       3.629481       3.870517       8.500000
         24.575     419.107513     114.309189       3.472385       3.642748       3.883333       8.500000
         24.600     420.728760     117.770905       3.483223       3.653436       3.891176       8.500000
         24.625     421.059998     122.541649       3.496539       3.666020       3.902925       8.500000
         24.650     420.821259     123.125488       3.508320       3.675592       3.914001       8.500000
         24.675     420.329987     125.341331       3.521073       3.689390       3.925596       8.500000
         24.700     420.457489     124.829124       3.531259       3.699237       3.932339       8.500000
         24.725     421.347504     124.720802       3.543461       3.704779       3.931924       8.500000
         24.750     422.456238     119.962440       3.555878       3.712393       3.932411       8.500000
         24.775     423.165009     116.623146       3.567520       3.727118       3.944823       8.500000
         24.800     423.991241     111.737831       3.585915       3.746849       3.959276       8.500000
         24.825     425.632507     108.926430       3.601048       3.763536       3.966825       8.500000
         24.850     427.751251     107.467789       3.614425       3.778920       3.978451       8.500000
         24.875     428.926239     109.987061       3.625612       3.793952       3.992306       8.500000
         24.900     431.001251     112.794075       3.638171       3.806478       4.000527       8.500000
         24.925     431.787506     112.103310       3.647681       3.809768       4.004451       8.500000
         24.950     432.593750     108.961517       3.653639       3.815200       4.012405       8.500000
         24.975     433.851257     106.082146       3.653238       3.819785       4.020024       8.500000
         25.000     435.035004     105.153847       3.651948       3.818724       4.019642       8.500000
         25.025     436.535004     107.792099       3.648942       3.809317       4.013012       8.500000
         25.050     437.626251     115.563957       3.650444       3.813088       4.019682       8.500000
         25.075     437.626251     124.814278       3.653251       3.819437       4.031274       8.500000
         25.100     438.431244     132.651779       3.657546       3.823958       4.036736       8.500000
         25.125     438.262512     136.820892       3.658030       3.827383       4.044366       8.500000
         25.150     437.652496     137.502838       3.662543       3.831039       4.049154       8.500000
         25.175     438.592499     132.543640       3.664481       3.836906       4.057650       8.500000
         25.200     437.612488     127.040283       3.664112       3.839111       4.062590       8.500000
         25.225     438.588745     121.585983       3.667246       3.840469       4.067217       8.500000
         25.250     437.491241     117.241501       3.665231       3.840710       4.072272       8.500000
         25.275     436.711243     111.975952       3.663738       3.849305       4.089862       8.500000
         25.300     435.851257     110.329498       3.664579       3.851241       4.094982       8.500000
         25.325     435.452515     111.251518       3.661153       3.845076       4.092872       8.500000
         25.350     434.579987     112.962730       3.655889       3.846009       4.098250       8.500000
         25.375     434.364990     115.592316       3.655401       3.852034       4.103624       8.500000
