~Version Information
VERS .            2.00                          : CWLS Log ASCII Standard - Version 2.00
WRAP .            NO                            : One line per depth step
#
~Well Information
#MNEM.UNIT        DATA                           : DESCRIPTION
#----.----        ----                           : -----------
STRT .M             -5.000                       : Start
STOP .M             43.475                       : Stop
STEP .M              0.025                       : Step increment
NULL .            -999.250                       : Null value
COMP .            IODP Expedition 347 Baltic Sea : Company
WELL .            BSB-7/Hole 65A                 : Well
FLD  .            Sweden                         : Field
PROV .            Sweden                         : Province
CTRY .            Sweden                         : State / Country
LOC  .                                           : Location
LOC2 .                                           : Location 2
SRVC .            Weatherford                    : Service company
UWI  .                                           : Unique Well ID
LATI .            55 28.094 N                    : Latitude
LONG .            15 28.631 E                    : Longitude
UTME .                                           : Universal Transverse Mercator Easting
UTMN .                                           : Universal Transverse Mercator Northing
DATE .            24-Oct-2013                    : Logging Date
#
~Curve Information
#MNEM.UNIT        API CODES                     : CURVE DESCRIPTION
#----.----        ---------                     : -----------------
DEPT .M           00 001 00 00                  : Logged depth
SMTU .LB          30 635 00 00                  : DST Uphole Tension
GRGC .GAPI        30 310 01 00                  : Gamma Ray
VEC0 .OHMM        07 120 00 00                  : Shallow Induction
RILM .OHMM        07 120 44 00                  : Medium Induction
RILD .OHMM        07 120 46 00                  : Deep Induction
BIT  .IN          70 282 00 00                  : Bit size
#
~Parameter Information
#MNEM.UNIT        VALUE                         : DESCRIPTION
#----.----        -----                         : -----------
RNID .                                          : Run ID
SON  .            50004126                      : Job Number
DREF .            GL                            : Depth reference
EREF .M                 0.000                   : Elevation of depth reference
GL   .M                 0.000                   : Ground elevation
RUN  .                  1                       : Run number
TDD  .M                77.000                   : TD (driller)
TDL  .M                42.900                   : TD (logger)
BS   .IN                8.500                   : Bit size
TIMC .                                          : Time circulation ended
TIML .                                          : Time logger at bottom
UNIT .              16104                       : Equipment ID
BASE .                                          : Equipment base location
ENG  .            C.Sedlatschek                 : Recording engineer
WIT  .            A.Fehr                        : Witnessed by
CSGT .                                          : Casing type
CSGS .IN                5.500                   : Casing size
CSGW .LB/FT            23.001                   : Casing weight
CSGD .M                15.100                   : Casing bottom (driller)
CSGL .M                15.100                   : Casing bottom (logger)
CSUP .M           -999999.000                   : Casing Stick Up GL
MUD  .            Sea Water                     : Mud type
MUDS .                                          : Mud sample source
MUDD .G/C3        -999999.000                   : Mud density
MUDV .CP          -999999.000                   : Mud viscosity
PH   .            -999999.000                   : Mud pH
FL   .ML/30MIN    -999999.000                   : Mud fluid loss rate
RM   .OHMM        -999999.000                   : Mud resistivity
RMT  .DEGC        -999999.000                   : Mud sample temperature
RMF  .OHMM        -999999.000                   : Mud filtrate resistivity
RMFT .DEGC        -999999.000                   : Mud filtrate sample temperature
RMC  .OHMM        -999999.000                   : Mud cake resistivity
RMCT .DEGC        -999999.000                   : Mud cake sample temperature
TMAX .DEGC        -999999.000                   : Max recorded temperature
#
~Other Information
--------------------------------------------------------------------------------
1. Well Manager Version 13.07.1135.
2. Log correlated to drill bit depth at 15.11m.
3. Depth Offset for Resistivity Log DO = +1.5m.
--------------------------------------------------------------------------------
#
#          DEPT           SMTU           GRGC           VEC0           RILM           RILD            BIT
#
~ASCII Log Data
# ...
         36.800     346.308746      64.763344       7.362442       8.723046       9.563773       8.500000
         36.825     347.902496      68.223450       7.318207       8.617685       9.387630       8.500000
         36.850     348.637512      69.718826       7.250659       8.486241       9.176318       8.500000
         36.875     348.637512      71.397499       7.193709       8.400407       9.032854       8.500000
         36.900     349.078735      69.259850       7.159114       8.364408       8.983622       8.500000
         36.925     349.067505      65.603004       7.131899       8.341606       8.948353       8.500000
         36.950     349.076263      61.634544       7.104380       8.373032       9.011000       8.500000
         36.975     349.068756      58.138943       7.104583       8.419188       9.123370       8.500000
         37.000     349.076263      55.204948       7.121818       8.473595       9.240986       8.500000
         37.025     349.065002      52.602856       7.182669       8.592297       9.413321       8.500000
         37.050     349.084991      52.130997       7.257178       8.689133       9.563303       8.500000
         37.075     349.062500      51.855961       7.372600       8.788059       9.657419       8.500000
         37.100     348.627502      50.497978       7.518616       8.918863       9.768557       8.500000
         37.125     348.068756      50.214905       7.688076       9.112676       9.939097       8.500000
         37.150     348.068756      50.869255       7.870054       9.267211      10.044068       8.500000
         37.175     349.093750      53.787243       8.058490       9.444845      10.141915       8.500000
         37.200     348.298737      56.549026       8.213922       9.608133      10.276131       8.500000
         37.225     348.092499      59.090134       8.433229       9.848262      10.502919       8.500000
         37.250     348.073761      59.260479       8.637440      10.110436      10.731807       8.500000
         37.275     348.092499      59.918110       8.813540      10.378490      10.989687       8.500000
         37.300     348.076263      60.464226       9.005279      10.688784      11.357706       8.500000
         37.325     348.491241      63.039108       9.202271      11.053749      11.792430       8.500000
         37.350     348.059998      63.739796       9.361479      11.448169      12.273430       8.500000
         37.375     348.737488      64.493240       9.577333      11.859220      12.780530       8.500000
         37.400     348.148743      62.726604       9.777473      12.247978      13.259064       8.500000
         37.425     348.077515      60.821098       9.964467      12.641141      13.730132       8.500000
         37.450     348.587494      59.548824      10.238682      13.019441      14.168322       8.500000
         37.475     349.071259      60.232109      10.490142      13.288584      14.384378       8.500000
         37.500     349.056244      61.177040      10.707317      13.494728      14.570663       8.500000
         37.525     349.072510      63.818382      10.944254      13.807424      14.963527       8.500000
         37.550     349.077515      67.008492      11.128846      13.997543      15.175681       8.500000
         37.575     348.941254      68.130653      11.290359      14.189924      15.275561       8.500000
         37.600     348.053741      67.967964      11.374803      14.297297      15.490882       8.500000
         37.625     348.380005      68.388596      11.458205      14.450022      15.825825       8.500000
         37.650     348.058746      71.402321      11.459709      14.522600      15.983806       8.500000
         37.675     348.998749      72.630730      11.409810      14.569467      16.171234       8.500000
         37.700     349.065002      74.671585      11.276950      14.525544      16.391933       8.500000
         37.725     348.737488      76.077148      11.099986      14.513267      16.621941       8.500000
         37.750     348.067505      78.630272      10.907049      14.409829      16.673504       8.500000
         37.775     349.072510      77.886276      10.794971      14.329022      16.711462       8.500000
         37.800     348.464996      77.406853      10.711216      14.214771      16.668322       8.500000
         37.825     348.059998      75.530510      10.568430      14.056741      16.627060       8.500000
         37.850     348.058746      75.005325      10.482721      13.866692      16.508829       8.500000
         37.875     348.065002      74.947266      10.451518      13.758061      16.466051       8.500000
         37.900     348.059998      75.969734      10.392239      13.532603      16.310095       8.500000
         37.925     348.076263      76.862213      10.320305      13.403247      16.320789       8.500000
         37.950     347.931244      77.451904      10.254052      13.255073      16.194372       8.500000
         37.975     347.136261      79.191376      10.172038      13.056269      16.025612       8.500000
         38.000     346.436249      79.975914      10.062862      12.796632      15.809219       8.500000
         38.025     346.182495      79.216843       9.970374      12.651608      15.713339       8.500000
         38.050     346.198761      77.814194       9.895638      12.490878      15.462623       8.500000
         38.075     346.186249      76.606064       9.830278      12.371404      15.321951       8.500000
         38.100     346.158752      76.992012       9.838811      12.325052      15.181177       8.500000
         38.125     346.167511      77.639236       9.857940      12.363412      15.169867       8.500000
         38.150     346.052490      78.071732       9.824836      12.331956      14.988462       8.500000
         38.175     344.876251      79.061699       9.856133      12.360723      14.970177       8.500000
         38.200     344.223755      78.675278       9.949761      12.367007      14.865796       8.500000
         38.225     344.248749      79.521675      10.024323      12.471164      14.919375       8.500000
         38.250     343.638763      77.998421      10.077885      12.540923      14.850874       8.500000
         38.275     343.681244      78.141632      10.176023      12.621349      14.878289       8.500000
         38.300     343.828735      79.560844      10.272349      12.651797      14.754766       8.500000
         38.325     343.061249      85.199387      10.351514      12.780132      14.809658       8.500000
         38.350     343.045013      89.433067      10.503128      12.917920      14.824755       8.500000
         38.375     343.070007      93.436920      10.638412      13.042044      14.864375       8.500000
         38.400     343.070007      96.050163      10.764789      13.144150      14.856673       8.500000
         38.425     343.066254      96.453156      10.959910      13.401093      15.047014       8.500000
         38.450     343.062500      95.089485      11.201715      13.703920      15.244161       8.500000
         38.475     342.442505      91.920403      11.402683      13.966637      15.388158       8.500000
         38.500     342.116241      90.425766      11.586144      14.111248      15.360034       8.500000
         38.525     342.106262      88.597321      11.786104      14.377785      15.541629       8.500000
         38.550     341.163757      86.944679      11.922824      14.589794      15.663571       8.500000
         38.575     341.166260      85.193016      12.047334      14.723313      15.689686       8.500000
         38.600     340.578735      83.383224      12.141394      14.795811      15.653481       8.500000
         38.625     341.167511      81.558281      12.293935      15.070695      15.944453       8.500000
         38.650     342.106262      80.572113      12.463520      15.289770      16.137058       8.500000
         38.675     342.096252    -999.250000      12.567009      15.356765      16.198954       8.500000
