~Version Information
VERS .            2.00                          : CWLS Log ASCII Standard - Version 2.00
WRAP .            NO                            : One line per depth step
#
~Well Information
#MNEM.UNIT        DATA                           : DESCRIPTION
#----.----        ----                           : -----------
STRT .M             -5.000                       : Start
STOP .M             43.475                       : Stop
STEP .M              0.025                       : Step increment
NULL .            -999.250                       : Null value
COMP .            IODP Expedition 347 Baltic Sea : Company
WELL .            BSB-7/Hole 65A                 : Well
FLD  .            Sweden                         : Field
PROV .            Sweden                         : Province
CTRY .            Sweden                         : State / Country
LOC  .                                           : Location
LOC2 .                                           : Location 2
SRVC .            Weatherford                    : Service company
UWI  .                                           : Unique Well ID
LATI .            55 28.094 N                    : Latitude
LONG .            15 28.631 E                    : Longitude
UTME .                                           : Universal Transverse Mercator Easting
UTMN .                                           : Universal Transverse Mercator Northing
DATE .            24-Oct-2013                    : Logging Date
#
~Curve Information
#MNEM.UNIT        API CODES                     : CURVE DESCRIPTION
#----.----        ---------                     : -----------------
DEPT .M           00 001 00 00                  : Logged depth
SMTU .LB          30 635 00 00                  : DST Uphole Tension
GRGC .GAPI        30 310 01 00                  : Gamma Ray
VEC0 .OHMM        07 120 00 00                  : Shallow Induction
RILM .OHMM        07 120 44 00                  : Medium Induction
RILD .OHMM        07 120 46 00                  : Deep Induction
BIT  .IN          70 282 00 00                  : Bit size
#
~Parameter Information
#MNEM.UNIT        VALUE                         : DESCRIPTION
#----.----        -----                         : -----------
RNID .                                          : Run ID
SON  .            50004126                      : Job Number
DREF .            GL                            : Depth reference
EREF .M                 0.000                   : Elevation of depth reference
GL   .M                 0.000                   : Ground elevation
RUN  .                  1                       : Run number
TDD  .M                77.000                   : TD (driller)
TDL  .M                42.900                   : TD (logger)
BS   .IN                8.500                   : Bit size
TIMC .                                          : Time circulation ended
TIML .                                          : Time logger at bottom
UNIT .              16104                       : Equipment ID
BASE .                                          : Equipment base location
ENG  .            C.Sedlatschek                 : Recording engineer
WIT  .            A.Fehr                        : Witnessed by
CSGT .                                          : Casing type
CSGS .IN                5.500                   : Casing size
CSGW .LB/FT            23.001                   : Casing weight
CSGD .M                15.100                   : Casing bottom (driller)
CSGL .M                15.100                   : Casing bottom (logger)
CSUP .M           -999999.000                   : Casing Stick Up GL
MUD  .            Sea Water                     : Mud type
MUDS .                                          : Mud sample source
MUDD .G/C3        -999999.000                   : Mud density
MUDV .CP          -999999.000                   : Mud viscosity
PH   .            -999999.000                   : Mud pH
FL   .ML/30MIN    -999999.000                   : Mud fluid loss rate
RM   .OHMM        -999999.000                   : Mud resistivity
RMT  .DEGC        -999999.000                   : Mud sample temperature
RMF  .OHMM        -999999.000                   : Mud filtrate resistivity
RMFT .DEGC        -999999.000                   : Mud filtrate sample temperature
RMC  .OHMM        -999999.000                   : Mud cake resistivity
RMCT .DEGC        -999999.000                   : Mud cake sample temperature
TMAX .DEGC        -999999.000                   : Max recorded temperature
#
~Other Information
--------------------------------------------------------------------------------
1. Well Manager Version 13.07.1135.
2. Log correlated to drill bit depth at 15.11m.
3. Depth Offset for Resistivity Log DO = +1.5m.
--------------------------------------------------------------------------------
#
#          DEPT           SMTU           GRGC           VEC0           RILM           RILD            BIT
#
~ASCII Log Data
# ...
         38.700     342.111237    -999.250000      12.577521      15.395176      16.254124       8.500000
         38.725     342.112488    -999.250000      12.573181      15.477051      16.425180       8.500000
         38.750     342.107513    -999.250000      12.547018      15.442601      16.406164       8.500000
         38.775     342.113739    -999.250000      12.524869      15.410918      16.324556       8.500000
         38.800     342.915009    -999.250000      12.551915      15.456029      16.374456       8.500000
         38.825     342.706238    -999.250000      12.531825      15.421573      16.331659       8.500000
         38.850     342.117493    -999.250000      12.451877      15.328746      16.257774       8.500000
         38.875     341.583740    -999.250000      12.346244      15.188588      16.130356       8.500000
         38.900     341.142487    -999.250000      12.279040      15.114697      16.129044       8.500000
         38.925     339.941254    -999.250000      12.171056      15.034945      16.130590       8.500000
         38.950     339.001251    -999.250000      12.081711      14.990204      16.125780       8.500000
         38.975     338.992493    -999.250000      11.986157      14.872354      16.059002       8.500000
         39.000     338.228760    -999.250000      11.980042      14.899461      16.185274       8.500000
         39.025     338.066254    -999.250000      11.903415      14.832730      16.155708       8.500000
         39.050     337.996246    -999.250000      11.803756      14.690472      16.054007       8.500000
         39.075     337.106262    -999.250000      11.735076      14.564235      15.973545       8.500000
         39.100     336.329987    -999.250000      11.715107      14.565950      16.051424       8.500000
         39.125     336.068756    -999.250000      11.595857      14.381982      15.837016       8.500000
         39.150     336.089996    -999.250000      11.470405      14.218831      15.703245       8.500000
         39.175     336.089996    -999.250000      11.367702      14.063715      15.556833       8.500000
         39.200     335.542511    -999.250000      11.410125      14.039860      15.597923       8.500000
         39.225     334.112488    -999.250000      11.412960      13.996659      15.513523       8.500000
         39.250     333.966248    -999.250000      11.432200      14.045761      15.534081       8.500000
         39.275     333.612488    -999.250000      11.487225      14.101214      15.553411       8.500000
         39.300     332.950012    -999.250000      11.545282      14.199747      15.706583       8.500000
         39.325     332.924988    -999.250000      11.559858      14.289702      15.826269       8.500000
         39.350     332.852509    -999.250000      11.640184      14.391907      15.979324       8.500000
         39.375     332.059998    -999.250000      11.686843      14.422232      16.051140       8.500000
         39.400     332.950012    -999.250000      11.682519      14.391297      16.105362       8.500000
         39.425     332.952515    -999.250000      11.692886      14.387553      16.092146       8.500000
         39.450     332.945007    -999.250000      11.703643      14.391856      16.044949       8.500000
         39.475     332.954987    -999.250000      11.667176      14.305985      15.928828       8.500000
         39.500     333.502502    -999.250000      11.569774      14.210670      15.912667       8.500000
         39.525     333.351257    -999.250000      11.605387      14.301099      15.940397       8.500000
         39.550     333.357513    -999.250000      11.623923      14.359675      15.974339       8.500000
         39.575     334.338745    -999.250000      11.587519      14.322606      15.959670       8.500000
         39.600     335.125000    -999.250000      11.516006      14.233353      15.867791       8.500000
         39.625     335.131256    -999.250000      11.495690      14.177236      15.788523       8.500000
         39.650     335.857513    -999.250000      11.443489      14.097165      15.732466       8.500000
         39.675     336.836243    -999.250000      11.374714      13.959493      15.545946       8.500000
         39.700     337.457489    -999.250000      11.247925      13.780708      15.334291       8.500000
         39.725     338.067505    -999.250000      11.158738      13.718462      15.255009       8.500000
         39.750     338.473755    -999.250000      11.132578      13.727647      15.203856       8.500000
         39.775     339.013763    -999.250000      11.058659      13.595407      15.016256       8.500000
         39.800     339.741241    -999.250000      11.040675      13.606944      15.089161       8.500000
         39.825     341.188751    -999.250000      11.064155      13.697596      15.133618       8.500000
         39.850     341.644989    -999.250000      11.067224      13.669622      15.006391       8.500000
         39.875     342.130005    -999.250000      11.074748      13.627308      14.972727       8.500000
         39.900     342.125000    -999.250000      11.078394      13.694298      15.136677       8.500000
         39.925     342.971252    -999.250000      11.072446      13.676581      15.077111       8.500000
         39.950     343.073761    -999.250000      11.014010      13.582296      15.024871       8.500000
         39.975     343.070007    -999.250000      11.057467      13.659516      15.266667       8.500000
         40.000     342.517487    -999.250000      11.140777      13.769133      15.396629       8.500000
         40.025     341.171265    -999.250000      11.223388      13.857713      15.434609       8.500000
         40.050     342.095001    -999.250000      11.191140      13.826697      15.478714       8.500000
         40.075     342.098755    -999.250000      11.245322      13.836274      15.527125       8.500000
         40.100     342.102509    -999.250000      11.218576      13.795660      15.450749       8.500000
         40.125     342.128754    -999.250000      11.145233      13.742076      15.430997       8.500000
         40.150     341.307495    -999.250000      11.131085      13.711864      15.418717       8.500000
         40.175     342.006256    -999.250000      11.185052      13.710171      15.356329       8.500000
         40.200     341.183746    -999.250000      11.125141      13.701346      15.415899       8.500000
         40.225     340.975006    -999.250000      11.163443      13.801681      15.517932       8.500000
         40.250     340.362488    -999.250000      11.122375      13.732252      15.450245       8.500000
         40.275     340.216248    -999.250000      11.005733      13.569197      15.335464       8.500000
         40.300     341.126251    -999.250000      10.962959      13.640560      15.444372       8.500000
         40.325     341.165009    -999.250000      10.924791      13.610815      15.327016       8.500000
         40.350     341.174988    -999.250000      10.770231      13.376681      15.091672       8.500000
         40.375     341.171265    -999.250000      10.689846      13.302826      14.990625       8.500000
         40.400     341.173737    -999.250000      10.643447      13.260801      14.878548       8.500000
         40.425     341.186249    -999.250000      10.626961      13.201092      14.738126       8.500000
         40.450     341.179993    -999.250000      10.603702      13.158360      14.657517       8.500000
         40.475     341.480011    -999.250000      10.648405      13.144634      14.567115       8.500000
         40.500     341.403748    -999.250000      10.629802      13.127495      14.514968       8.500000
         40.525     341.172485    -999.250000      10.625682      13.165169      14.521646       8.500000
         40.550     341.187500    -999.250000      10.601618      13.082561      14.436556       8.500000
         40.575     341.176239    -999.250000      10.617002      13.052135      14.354324       8.500000
