~Version Information
VERS .            2.00                          : CWLS Log ASCII Standard - Version 2.00
WRAP .            NO                            : One line per depth step
#
~Well Information
#MNEM.UNIT        DATA                           : DESCRIPTION
#----.----        ----                           : -----------
STRT .M             -5.000                       : Start
STOP .M             43.475                       : Stop
STEP .M              0.025                       : Step increment
NULL .            -999.250                       : Null value
COMP .            IODP Expedition 347 Baltic Sea : Company
WELL .            BSB-7/Hole 65A                 : Well
FLD  .            Sweden                         : Field
PROV .            Sweden                         : Province
CTRY .            Sweden                         : State / Country
LOC  .                                           : Location
LOC2 .                                           : Location 2
SRVC .            Weatherford                    : Service company
UWI  .                                           : Unique Well ID
LATI .            55 28.094 N                    : Latitude
LONG .            15 28.631 E                    : Longitude
UTME .                                           : Universal Transverse Mercator Easting
UTMN .                                           : Universal Transverse Mercator Northing
DATE .            24-Oct-2013                    : Logging Date
#
~Curve Information
#MNEM.UNIT        API CODES                     : CURVE DESCRIPTION
#----.----        ---------                     : -----------------
DEPT .M           00 001 00 00                  : Logged depth
SMTU .LB          30 635 00 00                  : DST Uphole Tension
GRGC .GAPI        30 310 01 00                  : Gamma Ray
VEC0 .OHMM        07 120 00 00                  : Shallow Induction
RILM .OHMM        07 120 44 00                  : Medium Induction
RILD .OHMM        07 120 46 00                  : Deep Induction
BIT  .IN          70 282 00 00                  : Bit size
#
~Parameter Information
#MNEM.UNIT        VALUE                         : DESCRIPTION
#----.----        -----                         : -----------
RNID .                                          : Run ID
SON  .            50004126                      : Job Number
DREF .            GL                            : Depth reference
EREF .M                 0.000                   : Elevation of depth reference
GL   .M                 0.000                   : Ground elevation
RUN  .                  1                       : Run number
TDD  .M                77.000                   : TD (driller)
TDL  .M                42.900                   : TD (logger)
BS   .IN                8.500                   : Bit size
TIMC .                                          : Time circulation ended
TIML .                                          : Time logger at bottom
UNIT .              16104                       : Equipment ID
BASE .                                          : Equipment base location
ENG  .            C.Sedlatschek                 : Recording engineer
WIT  .            A.Fehr                        : Witnessed by
CSGT .                                          : Casing type
CSGS .IN                5.500                   : Casing size
CSGW .LB/FT            23.001                   : Casing weight
CSGD .M                15.100                   : Casing bottom (driller)
CSGL .M                15.100                   : Casing bottom (logger)
CSUP .M           -999999.000                   : Casing Stick Up GL
MUD  .            Sea Water                     : Mud type
MUDS .                                          : Mud sample source
MUDD .G/C3        -999999.000                   : Mud density
MUDV .CP          -999999.000                   : Mud viscosity
PH   .            -999999.000                   : Mud pH
FL   .ML/30MIN    -999999.000                   : Mud fluid loss rate
RM   .OHMM        -999999.000                   : Mud resistivity
RMT  .DEGC        -999999.000                   : Mud sample temperature
RMF  .OHMM        -999999.000                   : Mud filtrate resistivity
RMFT .DEGC        -999999.000                   : Mud filtrate sample temperature
RMC  .OHMM        -999999.000                   : Mud cake resistivity
RMCT .DEGC        -999999.000                   : Mud cake sample temperature
TMAX .DEGC        -999999.000                   : Max recorded temperature
#
~Other Information
--------------------------------------------------------------------------------
1. Well Manager Version 13.07.1135.
2. Log correlated to drill bit depth at 15.11m.
3. Depth Offset for Resistivity Log DO = +1.5m.
--------------------------------------------------------------------------------
#
#          DEPT           SMTU           GRGC           VEC0           RILM           RILD            BIT
#
~ASCII Log Data
# ...
         21.600     401.042511      90.656097       2.887452       2.986051       3.089211       8.500000
         21.625     401.237488      93.823143       2.898438       2.996913       3.100577       8.500000
         21.650     402.481262      96.962761       2.909161       3.004942       3.110878       8.500000
         21.675     403.562500      99.220085       2.919546       3.012216       3.121566       8.500000
         21.700     404.298737      99.267303       2.927510       3.019945       3.132060       8.500000
         21.725     404.271240      99.616699       2.934526       3.028368       3.141532       8.500000
         21.750     395.383759      99.652931       2.936656       3.027343       3.144150       8.500000
         21.775     383.595001      99.897514       2.930444       3.025349       3.149638       8.500000
         21.800     382.440002      99.881638       2.928394       3.027502       3.157711       8.500000
         21.825     382.440002     100.471405       2.929899       3.028846       3.162330       8.500000
         21.850     379.684998     100.763878       2.925070       3.022853       3.161415       8.500000
         21.875     378.972504      98.194099       2.920797       3.022514       3.166096       8.500000
         21.900     377.315002      94.531990       2.918411       3.017785       3.165347       8.500000
         21.925     376.281250      89.518158       2.914324       3.012201       3.158224       8.500000
         21.950     375.320007      84.687874       2.907269       3.005852       3.155815       8.500000
         21.975     374.097504      78.930824       2.902188       3.002155       3.157762       8.500000
         22.000     374.121246      76.817802       2.901470       3.002939       3.160964       8.500000
         22.025     374.119995      78.561630       2.899274       3.003565       3.162161       8.500000
         22.050     374.119995      80.921219       2.902337       3.005745       3.168632       8.500000
         22.075     374.093750      86.284821       2.900298       3.005524       3.172174       8.500000
         22.100     374.097504      90.912003       2.896814       3.010078       3.178422       8.500000
         22.125     374.108765      97.403572       2.896625       3.012084       3.185169       8.500000
         22.150     374.130005      97.119614       2.898940       3.012789       3.192505       8.500000
         22.175     373.812500      98.199577       2.894932       3.014018       3.199990       8.500000
         22.200     373.576263      95.357750       2.896944       3.021673       3.215145       8.500000
         22.225     373.204987      94.362213       2.904021       3.027920       3.222540       8.500000
         22.250     374.046265      90.350784       2.906226       3.032730       3.228957       8.500000
         22.275     374.106262      89.066261       2.907158       3.039129       3.236232       8.500000
         22.300     374.113739      88.255142       2.914590       3.049677       3.247519       8.500000
         22.325     374.091248      90.588608       2.920642       3.056459       3.248612       8.500000
         22.350     374.092499      95.124352       2.924420       3.065459       3.257989       8.500000
         22.375     374.438751      99.553818       2.930634       3.078642       3.270416       8.500000
         22.400     375.065002     102.262131       2.937702       3.097361       3.282392       8.500000
         22.425     375.067505     102.765152       2.948013       3.111594       3.289770       8.500000
         22.450     375.056244     101.038742       2.960406       3.125623       3.297117       8.500000
         22.475     376.075012      98.256027       2.973619       3.143640       3.307998       8.500000
         22.500     376.303741      95.942604       2.987482       3.162998       3.320375       8.500000
         22.525     377.091248      97.370888       3.005813       3.179558       3.328989       8.500000
         22.550     377.427490      98.893929       3.017615       3.193692       3.333119       8.500000
         22.575     378.218750     100.136490       3.040232       3.220728       3.346933       8.500000
         22.600     379.191254      99.316109       3.062621       3.244308       3.358027       8.500000
         22.625     380.002502     100.690987       3.086878       3.262822       3.359540       8.500000
         22.650     381.434998     101.265160       3.107242       3.280863       3.364939       8.500000
         22.675     382.223755     102.033028       3.125441       3.298936       3.373144       8.500000
         22.700     382.222504      99.930191       3.138575       3.313530       3.379193       8.500000
         22.725     382.980011     100.460976       3.159583       3.330087       3.382358       8.500000
         22.750     382.595001      99.140015       3.172612       3.341276       3.386367       8.500000
         22.775     382.202515      98.099464       3.182250       3.353320       3.391855       8.500000
         22.800     382.202515      94.753975       3.188447       3.361886       3.395299       8.500000
         22.825     384.123749      93.651772       3.187827       3.356243       3.385969       8.500000
         22.850     385.369995      91.018814       3.178037       3.343895       3.375362       8.500000
         22.875     386.312500      89.775726       3.166564       3.333937       3.365250       8.500000
         22.900     386.299988      86.662514       3.159265       3.327106       3.356412       8.500000
         22.925     387.312500      87.215897       3.153132       3.318129       3.343464       8.500000
         22.950     387.303741      87.392723       3.145053       3.311784       3.337240       8.500000
         22.975     387.678741      89.767677       3.143495       3.306028       3.330715       8.500000
         23.000     388.277496      86.509636       3.138673       3.296182       3.320379       8.500000
         23.025     388.244995      83.996346       3.131891       3.280723       3.305755       8.500000
         23.050     387.859985      79.652031       3.125231       3.267932       3.296452       8.500000
         23.075     388.273743      78.556694       3.117025       3.258396       3.292493       8.500000
         23.100     388.273743      76.537300       3.100109       3.246812       3.287330       8.500000
         23.125     387.883759      79.416672       3.089731       3.234353       3.280559       8.500000
         23.150     387.277496      81.598190       3.072175       3.219229       3.277146       8.500000
         23.175     387.368744      82.497299       3.061699       3.211295       3.277886       8.500000
         23.200     387.901245      80.516739       3.044500       3.196902       3.267481       8.500000
         23.225     387.841248      77.949455       3.029829       3.183442       3.256066       8.500000
         23.250     387.292511      73.228065       3.012499       3.174992       3.251930       8.500000
         23.275     387.299988      69.565674       3.000441       3.163651       3.241324       8.500000
         23.300     387.296265      68.654121       2.992170       3.152501       3.229410       8.500000
         23.325     387.293762      71.913277       2.988979       3.143235       3.220648       8.500000
         23.350     387.088745      75.130791       2.985858       3.134883       3.213790       8.500000
         23.375     386.295013      80.507217       2.987385       3.131054       3.204891       8.500000
         23.400     385.875000      85.153961       2.989564       3.133280       3.202644       8.500000
         23.425     385.105011      88.602303       2.994767       3.137245       3.203172       8.500000
         23.450     385.093750      87.848671       3.005081       3.146542       3.209132       8.500000
         23.475     385.102509      88.461876       3.019615       3.164026       3.224449       8.500000
