~Version Information
VERS .            2.00                          : CWLS Log ASCII Standard - Version 2.00
WRAP .            NO                            : One line per depth step
#
~Well Information
#MNEM.UNIT        DATA                           : DESCRIPTION
#----.----        ----                           : -----------
STRT .M             -5.000                       : Start
STOP .M             43.475                       : Stop
STEP .M              0.025                       : Step increment
NULL .            -999.250                       : Null value
COMP .            IODP Expedition 347 Baltic Sea : Company
WELL .            BSB-7/Hole 65A                 : Well
FLD  .            Sweden                         : Field
PROV .            Sweden                         : Province
CTRY .            Sweden                         : State / Country
LOC  .                                           : Location
LOC2 .                                           : Location 2
SRVC .            Weatherford                    : Service company
UWI  .                                           : Unique Well ID
LATI .            55 28.094 N                    : Latitude
LONG .            15 28.631 E                    : Longitude
UTME .                                           : Universal Transverse Mercator Easting
UTMN .                                           : Universal Transverse Mercator Northing
DATE .            24-Oct-2013                    : Logging Date
#
~Curve Information
#MNEM.UNIT        API CODES                     : CURVE DESCRIPTION
#----.----        ---------                     : -----------------
DEPT .M           00 001 00 00                  : Logged depth
SMTU .LB          30 635 00 00                  : DST Uphole Tension
GRGC .GAPI        30 310 01 00                  : Gamma Ray
VEC0 .OHMM        07 120 00 00                  : Shallow Induction
RILM .OHMM        07 120 44 00                  : Medium Induction
RILD .OHMM        07 120 46 00                  : Deep Induction
BIT  .IN          70 282 00 00                  : Bit size
#
~Parameter Information
#MNEM.UNIT        VALUE                         : DESCRIPTION
#----.----        -----                         : -----------
RNID .                                          : Run ID
SON  .            50004126                      : Job Number
DREF .            GL                            : Depth reference
EREF .M                 0.000                   : Elevation of depth reference
GL   .M                 0.000                   : Ground elevation
RUN  .                  1                       : Run number
TDD  .M                77.000                   : TD (driller)
TDL  .M                42.900                   : TD (logger)
BS   .IN                8.500                   : Bit size
TIMC .                                          : Time circulation ended
TIML .                                          : Time logger at bottom
UNIT .              16104                       : Equipment ID
BASE .                                          : Equipment base location
ENG  .            C.Sedlatschek                 : Recording engineer
WIT  .            A.Fehr                        : Witnessed by
CSGT .                                          : Casing type
CSGS .IN                5.500                   : Casing size
CSGW .LB/FT            23.001                   : Casing weight
CSGD .M                15.100                   : Casing bottom (driller)
CSGL .M                15.100                   : Casing bottom (logger)
CSUP .M           -999999.000                   : Casing Stick Up GL
MUD  .            Sea Water                     : Mud type
MUDS .                                          : Mud sample source
MUDD .G/C3        -999999.000                   : Mud density
MUDV .CP          -999999.000                   : Mud viscosity
PH   .            -999999.000                   : Mud pH
FL   .ML/30MIN    -999999.000                   : Mud fluid loss rate
RM   .OHMM        -999999.000                   : Mud resistivity
RMT  .DEGC        -999999.000                   : Mud sample temperature
RMF  .OHMM        -999999.000                   : Mud filtrate resistivity
RMFT .DEGC        -999999.000                   : Mud filtrate sample temperature
RMC  .OHMM        -999999.000                   : Mud cake resistivity
RMCT .DEGC        -999999.000                   : Mud cake sample temperature
TMAX .DEGC        -999999.000                   : Max recorded temperature
#
~Other Information
--------------------------------------------------------------------------------
1. Well Manager Version 13.07.1135.
2. Log correlated to drill bit depth at 15.11m.
3. Depth Offset for Resistivity Log DO = +1.5m.
--------------------------------------------------------------------------------
#
#          DEPT           SMTU           GRGC           VEC0           RILM           RILD            BIT
#
~ASCII Log Data
# ...
         14.000     323.837494      72.473015 20000000.000000      15.656729       0.951131       8.500000
         14.025     324.551239      73.586540      13.596318      26.004999       1.050241       8.500000
         14.050     326.023743      75.160202      23.443367 20000000.000000       1.152415       8.500000
         14.075     325.613739      76.240990 20000000.000000 20000000.000000       1.323205       8.500000
         14.100     325.637512      77.855339 20000000.000000 20000000.000000       1.967687       8.500000
         14.125     325.986237      80.481209 20000000.000000 20000000.000000       5.342422       8.500000
         14.150     325.042511      84.290855 20000000.000000 20000000.000000      14.137166       8.500000
         14.175     325.852509      86.310036 20000000.000000 20000000.000000       6.038217       8.500000
         14.200     326.042511      87.959175 20000000.000000 20000000.000000       1.950581       8.500000
         14.225     326.083740      89.417336 20000000.000000 20000000.000000       0.861789       8.500000
         14.250     326.971252      92.113472 20000000.000000 20000000.000000       0.572432       8.500000
         14.275     327.786255      92.289589 20000000.000000       3.214295       0.505629       8.500000
         14.300     328.510010      91.791176       2.754251       1.587885       0.514102       8.500000
         14.325     330.426239      89.235153       1.170268       1.680200       0.598472       8.500000
         14.350     331.253754      88.705673       1.057574       2.832457       0.792170       8.500000
         14.375     332.378754      88.354332       1.101590       6.329291       1.004927       8.500000
         14.400     333.598755      92.997475       1.649551 20000000.000000       1.129510       8.500000
         14.425     334.993744      97.814178       3.084414 20000000.000000       1.175442       8.500000
         14.450     336.366241     105.055450      19.301683 20000000.000000       1.164833       8.500000
         14.475     337.630005     107.340736 20000000.000000 20000000.000000       1.114543       8.500000
         14.500     337.630005     107.929756 20000000.000000 20000000.000000       1.030076       8.500000
         14.525     338.981262     104.258659 20000000.000000    4495.537598       0.958050       8.500000
         14.550     339.722504     102.135284 20000000.000000      26.751579       0.904817       8.500000
         14.575     340.195007     101.704208 20000000.000000      18.044123       0.872256       8.500000
         14.600     340.464996     105.540932 20000000.000000      21.264391       0.882944       8.500000
         14.625     341.116241     110.216133 20000000.000000  808771.250000       0.958831       8.500000
         14.650     342.292511     115.404640 20000000.000000 20000000.000000       1.103157       8.500000
         14.675     343.032501     117.158745 20000000.000000 20000000.000000       1.412050       8.500000
         14.700     343.994995     113.185402       2.880406 20000000.000000       1.964585       8.500000
         14.725     344.007507     106.288589       1.395427 20000000.000000       2.959578       8.500000
         14.750     344.013763      99.030167       1.020224 20000000.000000       4.825595       8.500000
         14.775     343.977509      94.192245       0.888279 20000000.000000       7.913533       8.500000
         14.800     345.062500      92.654579       0.912339 10950584.000000       8.558711       8.500000
         14.825     346.470001      96.518944       0.961141      25.575392       7.412487       8.500000
         14.850     347.320007     102.523933       1.034865       7.199065       5.607104       8.500000
         14.875     348.496246     107.001022       1.139683       3.609442       4.106514       8.500000
         14.900     348.496246     109.223709       1.305761       2.129058       2.934754       8.500000
         14.925     349.399994     111.684532       1.514328       1.573124       2.348230       8.500000
         14.950     350.237488     111.805992       1.774630       1.279912       1.999927       8.500000
         14.975     350.302490     111.614601       2.029411       1.114170       1.804512       8.500000
         15.000     351.170013     112.113037       2.091604       1.025536       1.755422       8.500000
         15.025     351.172485     113.280991       1.944898       1.030146       1.834491       8.500000
         15.050     351.178741     112.127312       1.762896       1.047021       1.924498       8.500000
         15.075     351.170013     109.674423       1.599545       1.105780       2.002228       8.500000
         15.100     350.959991     107.286217       1.478458       1.194453       2.087606       8.500000
         15.125     350.269989     105.614235       1.434007       1.320973       2.109687       8.500000
         15.150     349.518738     107.408577       1.414831       1.460943       2.133730       8.500000
         15.175     348.976257     110.237106       1.411778       1.590275       2.147485       8.500000
         15.200     348.065002     112.353439       1.412735       1.645251       2.181333       8.500000
         15.225     348.816254     111.514359       1.424071       1.654031       2.181905       8.500000
         15.250     349.061249     108.778122       1.435337       1.623636       2.173012       8.500000
         15.275     349.073761     104.525513       1.443668       1.574360       2.159933       8.500000
         15.300     349.056244     101.116035       1.452289       1.532026       2.145228       8.500000
         15.325     349.051239      99.607063       1.456977       1.505257       2.138599       8.500000
         15.350     349.066254      98.183800       1.460768       1.488779       2.140942       8.500000
         15.375     349.059998      98.302376       1.459687       1.474908       2.150121       8.500000
         15.400     349.068756      98.117599       1.448812       1.455933       2.179178       8.500000
         15.425     349.067505      99.295135       1.449790       1.451321       2.185489       8.500000
         15.450     348.723755      99.627853       1.461500       1.459058       2.177255       8.500000
         15.475     348.635010     101.059502       1.500538       1.493455       2.118587       8.500000
         15.500     349.048737     103.959953       1.556314       1.544349       2.046360       8.500000
         15.525     349.052490     105.429131       1.638880       1.620578       1.953994       8.500000
         15.550     349.063751     104.618721       1.720710       1.695521       1.881194       8.500000
         15.575     349.052490     103.169792       1.795003       1.763575       1.826162       8.500000
         15.600     350.222504     103.258865       1.830440       1.796278       1.807062       8.500000
         15.625     350.221252     102.325935       1.853077       1.816082       1.798729       8.500000
         15.650     351.767487     102.395500       1.859093       1.822110       1.800562       8.500000
         15.675     353.012512     102.107651       1.857283       1.820312       1.809000       8.500000
         15.700     354.062500     103.561447       1.854932       1.819114       1.816521       8.500000
         15.725     354.531250     104.628525       1.852904       1.817953       1.822989       8.500000
         15.750     355.191254     106.170067       1.851185       1.817681       1.828882       8.500000
         15.775     355.201263     106.265236       1.851741       1.818108       1.832612       8.500000
         15.800     356.100006     104.908859       1.851887       1.819885       1.836215       8.500000
         15.825     356.100006     103.504433       1.851600       1.820416       1.838156       8.500000
         15.850     357.236237     103.042084       1.853650       1.822493       1.840145       8.500000
         15.875     358.054993     102.309372       1.854054       1.824022       1.843244       8.500000
