~Version Information
VERS .            2.00                          : CWLS Log ASCII Standard - Version 2.00
WRAP .            NO                            : One line per depth step
#
~Well Information
#MNEM.UNIT        DATA                           : DESCRIPTION
#----.----        ----                           : -----------
STRT .M             -5.000                       : Start
STOP .M             43.475                       : Stop
STEP .M              0.025                       : Step increment
NULL .            -999.250                       : Null value
COMP .            IODP Expedition 347 Baltic Sea : Company
WELL .            BSB-7/Hole 65A                 : Well
FLD  .            Sweden                         : Field
PROV .            Sweden                         : Province
CTRY .            Sweden                         : State / Country
LOC  .                                           : Location
LOC2 .                                           : Location 2
SRVC .            Weatherford                    : Service company
UWI  .                                           : Unique Well ID
LATI .            55 28.094 N                    : Latitude
LONG .            15 28.631 E                    : Longitude
UTME .                                           : Universal Transverse Mercator Easting
UTMN .                                           : Universal Transverse Mercator Northing
DATE .            24-Oct-2013                    : Logging Date
#
~Curve Information
#MNEM.UNIT        API CODES                     : CURVE DESCRIPTION
#----.----        ---------                     : -----------------
DEPT .M           00 001 00 00                  : Logged depth
SMTU .LB          30 635 00 00                  : DST Uphole Tension
GRGC .GAPI        30 310 01 00                  : Gamma Ray
VEC0 .OHMM        07 120 00 00                  : Shallow Induction
RILM .OHMM        07 120 44 00                  : Medium Induction
RILD .OHMM        07 120 46 00                  : Deep Induction
BIT  .IN          70 282 00 00                  : Bit size
#
~Parameter Information
#MNEM.UNIT        VALUE                         : DESCRIPTION
#----.----        -----                         : -----------
RNID .                                          : Run ID
SON  .            50004126                      : Job Number
DREF .            GL                            : Depth reference
EREF .M                 0.000                   : Elevation of depth reference
GL   .M                 0.000                   : Ground elevation
RUN  .                  1                       : Run number
TDD  .M                77.000                   : TD (driller)
TDL  .M                42.900                   : TD (logger)
BS   .IN                8.500                   : Bit size
TIMC .                                          : Time circulation ended
TIML .                                          : Time logger at bottom
UNIT .              16104                       : Equipment ID
BASE .                                          : Equipment base location
ENG  .            C.Sedlatschek                 : Recording engineer
WIT  .            A.Fehr                        : Witnessed by
CSGT .                                          : Casing type
CSGS .IN                5.500                   : Casing size
CSGW .LB/FT            23.001                   : Casing weight
CSGD .M                15.100                   : Casing bottom (driller)
CSGL .M                15.100                   : Casing bottom (logger)
CSUP .M           -999999.000                   : Casing Stick Up GL
MUD  .            Sea Water                     : Mud type
MUDS .                                          : Mud sample source
MUDD .G/C3        -999999.000                   : Mud density
MUDV .CP          -999999.000                   : Mud viscosity
PH   .            -999999.000                   : Mud pH
FL   .ML/30MIN    -999999.000                   : Mud fluid loss rate
RM   .OHMM        -999999.000                   : Mud resistivity
RMT  .DEGC        -999999.000                   : Mud sample temperature
RMF  .OHMM        -999999.000                   : Mud filtrate resistivity
RMFT .DEGC        -999999.000                   : Mud filtrate sample temperature
RMC  .OHMM        -999999.000                   : Mud cake resistivity
RMCT .DEGC        -999999.000                   : Mud cake sample temperature
TMAX .DEGC        -999999.000                   : Max recorded temperature
#
~Other Information
--------------------------------------------------------------------------------
1. Well Manager Version 13.07.1135.
2. Log correlated to drill bit depth at 15.11m.
3. Depth Offset for Resistivity Log DO = +1.5m.
--------------------------------------------------------------------------------
#
#          DEPT           SMTU           GRGC           VEC0           RILM           RILD            BIT
#
~ASCII Log Data
# ...
         17.800     372.253754      97.301483       2.085720       2.084509       2.132681       8.500000
         17.825     371.543762      95.106346       2.085396       2.085288       2.133833       8.500000
         17.850     370.606262      98.228325       2.084149       2.086242       2.135428       8.500000
         17.875     369.751251     100.063225       2.084022       2.086783       2.138086       8.500000
         17.900     369.221252     100.794380       2.080172       2.083462       2.136414       8.500000
         17.925     367.450012      97.056808       2.078401       2.082494       2.136920       8.500000
         17.950     366.651245      95.146767       2.077803       2.082158       2.138195       8.500000
         17.975     365.838745      92.692047       2.078494       2.083117       2.138911       8.500000
         18.000     365.073761      92.873917       2.078983       2.083250       2.139019       8.500000
         18.025     364.690002      94.718315       2.079777       2.083692       2.139197       8.500000
         18.050     363.928741      99.741417       2.080737       2.082205       2.137953       8.500000
         18.075     363.928741     105.655502       2.083059       2.083139       2.136918       8.500000
         18.100     362.196259     111.010384       2.087377       2.086516       2.138630       8.500000
         18.125     361.744995     115.382637       2.092237       2.092133       2.142380       8.500000
         18.150     361.228760     117.973389       2.099266       2.098715       2.145654       8.500000
         18.175     360.227509     120.013550       2.106097       2.105155       2.150682       8.500000
         18.200     360.021240     120.064529       2.114836       2.113102       2.158834       8.500000
         18.225     359.012512     116.424522       2.122683       2.120712       2.166405       8.500000
         18.250     357.346252     110.161476       2.128612       2.128219       2.175826       8.500000
         18.275     360.301239     104.877457       2.136165       2.136934       2.185975       8.500000
         18.300     378.391235     102.022896       2.142944       2.145692       2.196325       8.500000
         18.325     380.417511     102.345093       2.151260       2.155255       2.206321       8.500000
         18.350     382.073761     105.695450       2.164324       2.167035       2.217917       8.500000
         18.375     383.421265     110.233284       2.177402       2.177746       2.226512       8.500000
         18.400     384.541260     112.080597       2.190234       2.188478       2.235213       8.500000
         18.425     385.858765     110.846725       2.202001       2.198523       2.244203       8.500000
         18.450     387.188751     107.460075       2.212192       2.206543       2.251926       8.500000
         18.475     387.843750     105.301300       2.222488       2.216003       2.260667       8.500000
         18.500     389.616241     102.112534       2.233491       2.226394       2.271303       8.500000
         18.525     391.160004     101.304115       2.243632       2.237261       2.281128       8.500000
         18.550     392.808746     101.141563       2.255782       2.249630       2.290174       8.500000
         18.575     393.903748     102.154533       2.266731       2.261607       2.299738       8.500000
         18.600     395.821259     103.531532       2.274774       2.270589       2.309251       8.500000
         18.625     398.141235     105.725266       2.280851       2.278006       2.316530       8.500000
         18.650     399.290009     107.312492       2.288718       2.288986       2.328137       8.500000
         18.675     400.322510     107.984650       2.298501       2.299944       2.339054       8.500000
         18.700     401.282501     108.106148       2.308183       2.310880       2.349709       8.500000
         18.725     402.146240     110.125984       2.317410       2.321030       2.360746       8.500000
         18.750     402.481262     113.454819       2.328588       2.332198       2.372518       8.500000
         18.775     402.498749     117.703331       2.338608       2.341665       2.383176       8.500000
         18.800     403.364990     121.216866       2.350423       2.354228       2.396833       8.500000
         18.825     403.421265     123.079597       2.361522       2.366470       2.409276       8.500000
         18.850     403.575012     120.255524       2.375507       2.380073       2.420747       8.500000
         18.875     403.808746     116.368408       2.388284       2.393993       2.434404       8.500000
         18.900     403.470001     112.702507       2.398529       2.403709       2.446193       8.500000
         18.925     403.443756     112.069534       2.404701       2.411454       2.456886       8.500000
         18.950     403.934998     111.929642       2.412753       2.420113       2.468782       8.500000
         18.975     404.318756     112.186211       2.421494       2.429106       2.480699       8.500000
         19.000     404.850006     112.802460       2.432162       2.439243       2.494388       8.500000
         19.025     405.257507     114.903297       2.440986       2.449875       2.507888       8.500000
         19.050     405.506256     115.570274       2.450649       2.460697       2.521838       8.500000
         19.075     405.506256     117.159401       2.458557       2.471011       2.535155       8.500000
         19.100     406.272491     117.650192       2.463089       2.478266       2.547660       8.500000
         19.125     405.512512     118.145828       2.467922       2.486250       2.559003       8.500000
         19.150     405.512512     116.625420       2.475219       2.495460       2.571043       8.500000
         19.175     405.304993     114.608536       2.478719       2.502457       2.581026       8.500000
         19.200     406.255005     112.624283       2.482383       2.507825       2.590064       8.500000
         19.225     406.266235     110.556046       2.484007       2.512191       2.596985       8.500000
         19.250     406.276245     110.082611       2.489223       2.516708       2.602438       8.500000
         19.275     406.293762     110.161407       2.495751       2.522410       2.609516       8.500000
         19.300     406.293762     110.977051       2.502353       2.527673       2.614512       8.500000
         19.325     405.268738     108.191925       2.507765       2.533610       2.621782       8.500000
         19.350     405.251251     105.695122       2.513537       2.541510       2.629513       8.500000
         19.375     405.712494     103.643585       2.518303       2.549603       2.637320       8.500000
         19.400     406.260010     103.194466       2.524971       2.557751       2.644725       8.500000
         19.425     406.765015     103.846680       2.531683       2.566058       2.653579       8.500000
         19.450     407.178741     106.653816       2.537841       2.572749       2.658700       8.500000
         19.475     406.268738     110.090401       2.542703       2.579255       2.664886       8.500000
         19.500     406.257507     111.057129       2.544152       2.581932       2.668921       8.500000
         19.525     406.258759     109.688614       2.545776       2.587250       2.674941       8.500000
         19.550     406.276245     107.669884       2.551421       2.594416       2.681379       8.500000
         19.575     406.271240     107.299339       2.561685       2.605485       2.689749       8.500000
         19.600     407.393738     105.911461       2.570899       2.614234       2.695019       8.500000
         19.625     406.862488     107.279762       2.577276       2.621134       2.699726       8.500000
         19.650     406.260010     106.448822       2.581607       2.624665       2.701300       8.500000
         19.675     406.277496     107.185898       2.586138       2.627529       2.702430       8.500000
