~Version Information
VERS .            2.00                          : CWLS Log ASCII Standard - Version 2.00
WRAP .            NO                            : One line per depth step
#
~Well Information
#MNEM.UNIT        DATA                           : DESCRIPTION
#----.----        ----                           : -----------
STRT .M             -5.000                       : Start
STOP .M             43.475                       : Stop
STEP .M              0.025                       : Step increment
NULL .            -999.250                       : Null value
COMP .            IODP Expedition 347 Baltic Sea : Company
WELL .            BSB-7/Hole 65A                 : Well
FLD  .            Sweden                         : Field
PROV .            Sweden                         : Province
CTRY .            Sweden                         : State / Country
LOC  .                                           : Location
LOC2 .                                           : Location 2
SRVC .            Weatherford                    : Service company
UWI  .                                           : Unique Well ID
LATI .            55 28.094 N                    : Latitude
LONG .            15 28.631 E                    : Longitude
UTME .                                           : Universal Transverse Mercator Easting
UTMN .                                           : Universal Transverse Mercator Northing
DATE .            24-Oct-2013                    : Logging Date
#
~Curve Information
#MNEM.UNIT        API CODES                     : CURVE DESCRIPTION
#----.----        ---------                     : -----------------
DEPT .M           00 001 00 00                  : Logged depth
SMTU .LB          30 635 00 00                  : DST Uphole Tension
GRGC .GAPI        30 310 01 00                  : Gamma Ray
VEC0 .OHMM        07 120 00 00                  : Shallow Induction
RILM .OHMM        07 120 44 00                  : Medium Induction
RILD .OHMM        07 120 46 00                  : Deep Induction
BIT  .IN          70 282 00 00                  : Bit size
#
~Parameter Information
#MNEM.UNIT        VALUE                         : DESCRIPTION
#----.----        -----                         : -----------
RNID .                                          : Run ID
SON  .            50004126                      : Job Number
DREF .            GL                            : Depth reference
EREF .M                 0.000                   : Elevation of depth reference
GL   .M                 0.000                   : Ground elevation
RUN  .                  1                       : Run number
TDD  .M                77.000                   : TD (driller)
TDL  .M                42.900                   : TD (logger)
BS   .IN                8.500                   : Bit size
TIMC .                                          : Time circulation ended
TIML .                                          : Time logger at bottom
UNIT .              16104                       : Equipment ID
BASE .                                          : Equipment base location
ENG  .            C.Sedlatschek                 : Recording engineer
WIT  .            A.Fehr                        : Witnessed by
CSGT .                                          : Casing type
CSGS .IN                5.500                   : Casing size
CSGW .LB/FT            23.001                   : Casing weight
CSGD .M                15.100                   : Casing bottom (driller)
CSGL .M                15.100                   : Casing bottom (logger)
CSUP .M           -999999.000                   : Casing Stick Up GL
MUD  .            Sea Water                     : Mud type
MUDS .                                          : Mud sample source
MUDD .G/C3        -999999.000                   : Mud density
MUDV .CP          -999999.000                   : Mud viscosity
PH   .            -999999.000                   : Mud pH
FL   .ML/30MIN    -999999.000                   : Mud fluid loss rate
RM   .OHMM        -999999.000                   : Mud resistivity
RMT  .DEGC        -999999.000                   : Mud sample temperature
RMF  .OHMM        -999999.000                   : Mud filtrate resistivity
RMFT .DEGC        -999999.000                   : Mud filtrate sample temperature
RMC  .OHMM        -999999.000                   : Mud cake resistivity
RMCT .DEGC        -999999.000                   : Mud cake sample temperature
TMAX .DEGC        -999999.000                   : Max recorded temperature
#
~Other Information
--------------------------------------------------------------------------------
1. Well Manager Version 13.07.1135.
2. Log correlated to drill bit depth at 15.11m.
3. Depth Offset for Resistivity Log DO = +1.5m.
--------------------------------------------------------------------------------
#
#          DEPT           SMTU           GRGC           VEC0           RILM           RILD            BIT
#
~ASCII Log Data
# ...
         25.400     433.345001     119.296715       3.654824       3.851702       4.100261       8.500000
         25.425     451.678741     122.296982       3.651799       3.849767       4.097973       8.500000
         25.450     455.285004     123.758202       3.665758       3.864524       4.111150       8.500000
         25.475     456.528748     124.826241       3.673923       3.875018       4.115932       8.500000
         25.500     458.454987     126.543434       3.684695       3.885730       4.125009       8.500000
         25.525     460.510010     126.021675       3.691490       3.889495       4.127784       8.500000
         25.550     461.686249     123.992180       3.697728       3.891814       4.127710       8.500000
         25.575     463.195007     120.270004       3.703180       3.899031       4.134039       8.500000
         25.600     464.154999     117.245712       3.710599       3.905408       4.140251       8.500000
         25.625     465.399994     114.677315       3.709403       3.905163       4.138801       8.500000
         25.650     465.736237     113.003525       3.714299       3.918808       4.146894       8.500000
         25.675     466.535004     113.192261       3.722776       3.937662       4.162968       8.500000
         25.700     467.638763     113.362625       3.724043       3.936543       4.156603       8.500000
         25.725     468.959991     115.740044       3.739731       3.951051       4.161545       8.500000
         25.750     470.723755     115.014725       3.753037       3.962867       4.163922       8.500000
         25.775     471.556244     113.509193       3.760624       3.969205       4.162479       8.500000
         25.800     471.587494     113.408821       3.768123       3.976106       4.157785       8.500000
         25.825     470.765015     115.758057       3.778330       3.991750       4.161795       8.500000
         25.850     470.548737     118.725052       3.782746       3.997450       4.162282       8.500000
         25.875     470.551239     117.999794       3.802542       4.022001       4.180020       8.500000
         25.900     471.038757     117.833023       3.827687       4.048354       4.197963       8.500000
         25.925     470.512512     113.546455       3.847898       4.064261       4.209076       8.500000
         25.950     469.598755     109.938667       3.867613       4.082380       4.220882       8.500000
         25.975     468.954987     102.799187       3.887386       4.103088       4.237032       8.500000
         26.000     468.111237     101.357758       3.902069       4.111437       4.242002       8.500000
         26.025     467.651245     101.866524       3.909904       4.121640       4.248655       8.500000
         26.050     450.265015     107.063766       3.908854       4.123997       4.245639       8.500000
         26.075     441.638763     110.482918       3.910487       4.124789       4.245443       8.500000
         26.100     439.861237     111.977440       3.914482       4.127811       4.242712       8.500000
         26.125     438.106262     112.312134       3.916880       4.126105       4.228268       8.500000
         26.150     436.683746     112.321846       3.916963       4.118805       4.216717       8.500000
         26.175     435.472504     110.531616       3.912126       4.112896       4.207739       8.500000
         26.200     433.518738     106.142670       3.905985       4.101688       4.190954       8.500000
         26.225     432.399994     102.981331       3.892039       4.083033       4.173073       8.500000
         26.250     432.401245      99.154884       3.882983       4.074354       4.166702       8.500000
         26.275     432.415009      96.873413       3.872602       4.066858       4.157840       8.500000
         26.300     424.003754      93.354179       3.869029       4.062059       4.152915       8.500000
         26.325     409.772491      92.652184       3.868458       4.065616       4.157905       8.500000
         26.350     408.296265      92.299850       3.872813       4.067777       4.158176       8.500000
         26.375     407.418762      93.356323       3.875569       4.065337       4.155954       8.500000
         26.400     404.967499      93.356316       3.869797       4.054201       4.148716       8.500000
         26.425     403.866241      93.710991       3.868146       4.051377       4.147899       8.500000
         26.450     403.146240      94.353226       3.862419       4.047750       4.149082       8.500000
         26.475     403.146240      96.223198       3.857953       4.049266       4.154860       8.500000
         26.500     401.290009      97.212685       3.853763       4.053069       4.168379       8.500000
         26.525     401.285004      96.584618       3.869704       4.068020       4.183961       8.500000
         26.550     400.973755      96.487144       3.881557       4.079455       4.195168       8.500000
         26.575     400.322510      95.449585       3.888883       4.086862       4.205184       8.500000
         26.600     400.321259      93.452431       3.901540       4.095993       4.216734       8.500000
         26.625     400.320007      92.157364       3.914407       4.111333       4.232471       8.500000
         26.650     400.317505      94.351433       3.923084       4.124592       4.243108       8.500000
         26.675     401.241241     100.067177       3.945168       4.149432       4.267377       8.500000
         26.700     401.285004     105.668999       3.959856       4.169009       4.286391       8.500000
         26.725     401.282501     111.363602       3.971066       4.191905       4.306224       8.500000
         26.750     401.736237     114.157112       3.990400       4.213343       4.324688       8.500000
         26.775     402.618744     115.475594       4.017755       4.244340       4.355103       8.500000
         26.800     403.429993     111.865929       4.036012       4.271780       4.381264       8.500000
         26.825     403.903748     106.842018       4.068302       4.298176       4.395943       8.500000
         26.850     404.302490     101.296303       4.097747       4.323752       4.415185       8.500000
         26.875     404.822510      98.475830       4.119048       4.344348       4.428129       8.500000
         26.900     405.246246      96.114586       4.143926       4.373116       4.455607       8.500000
         26.925     405.246246      93.929459       4.172690       4.397761       4.474525       8.500000
         26.950     405.246246      93.039764       4.215317       4.442836       4.507864       8.500000
         26.975     406.487488      93.647537       4.257245       4.483601       4.541196       8.500000
         27.000     407.451263      95.490921       4.305449       4.531792       4.579201       8.500000
         27.025     407.679993      96.480583       4.349059       4.580192       4.614720       8.500000
         27.050     407.918762      98.680817       4.392678       4.623984       4.650517       8.500000
         27.075     408.378754     104.046974       4.420059       4.660772       4.689426       8.500000
         27.100     408.353760     110.011307       4.442508       4.699036       4.725069       8.500000
         27.125     408.363739     114.479912       4.471009       4.732957       4.759088       8.500000
         27.150     408.376251     114.635780       4.492832       4.752181       4.776155       8.500000
         27.175     408.394989     111.115364       4.510785       4.783495       4.807252       8.500000
         27.200     408.386261     104.522804       4.524755       4.809416       4.835895       8.500000
         27.225     407.716248      95.856117       4.547458       4.830178       4.855304       8.500000
         27.250     407.442505      89.279900       4.552162       4.842801       4.866151       8.500000
         27.275     406.668762      85.694359       4.568825       4.866437       4.888148       8.500000
