~Version Information
VERS .            2.00                          : CWLS Log ASCII Standard - Version 2.00
WRAP .            NO                            : One line per depth step
#
~Well Information
#MNEM.UNIT        DATA                           : DESCRIPTION
#----.----        ----                           : -----------
STRT .M             -5.000                       : Start
STOP .M             43.475                       : Stop
STEP .M              0.025                       : Step increment
NULL .            -999.250                       : Null value
COMP .            IODP Expedition 347 Baltic Sea : Company
WELL .            BSB-7/Hole 65A                 : Well
FLD  .            Sweden                         : Field
PROV .            Sweden                         : Province
CTRY .            Sweden                         : State / Country
LOC  .                                           : Location
LOC2 .                                           : Location 2
SRVC .            Weatherford                    : Service company
UWI  .                                           : Unique Well ID
LATI .            55 28.094 N                    : Latitude
LONG .            15 28.631 E                    : Longitude
UTME .                                           : Universal Transverse Mercator Easting
UTMN .                                           : Universal Transverse Mercator Northing
DATE .            24-Oct-2013                    : Logging Date
#
~Curve Information
#MNEM.UNIT        API CODES                     : CURVE DESCRIPTION
#----.----        ---------                     : -----------------
DEPT .M           00 001 00 00                  : Logged depth
SMTU .LB          30 635 00 00                  : DST Uphole Tension
GRGC .GAPI        30 310 01 00                  : Gamma Ray
VEC0 .OHMM        07 120 00 00                  : Shallow Induction
RILM .OHMM        07 120 44 00                  : Medium Induction
RILD .OHMM        07 120 46 00                  : Deep Induction
BIT  .IN          70 282 00 00                  : Bit size
#
~Parameter Information
#MNEM.UNIT        VALUE                         : DESCRIPTION
#----.----        -----                         : -----------
RNID .                                          : Run ID
SON  .            50004126                      : Job Number
DREF .            GL                            : Depth reference
EREF .M                 0.000                   : Elevation of depth reference
GL   .M                 0.000                   : Ground elevation
RUN  .                  1                       : Run number
TDD  .M                77.000                   : TD (driller)
TDL  .M                42.900                   : TD (logger)
BS   .IN                8.500                   : Bit size
TIMC .                                          : Time circulation ended
TIML .                                          : Time logger at bottom
UNIT .              16104                       : Equipment ID
BASE .                                          : Equipment base location
ENG  .            C.Sedlatschek                 : Recording engineer
WIT  .            A.Fehr                        : Witnessed by
CSGT .                                          : Casing type
CSGS .IN                5.500                   : Casing size
CSGW .LB/FT            23.001                   : Casing weight
CSGD .M                15.100                   : Casing bottom (driller)
CSGL .M                15.100                   : Casing bottom (logger)
CSUP .M           -999999.000                   : Casing Stick Up GL
MUD  .            Sea Water                     : Mud type
MUDS .                                          : Mud sample source
MUDD .G/C3        -999999.000                   : Mud density
MUDV .CP          -999999.000                   : Mud viscosity
PH   .            -999999.000                   : Mud pH
FL   .ML/30MIN    -999999.000                   : Mud fluid loss rate
RM   .OHMM        -999999.000                   : Mud resistivity
RMT  .DEGC        -999999.000                   : Mud sample temperature
RMF  .OHMM        -999999.000                   : Mud filtrate resistivity
RMFT .DEGC        -999999.000                   : Mud filtrate sample temperature
RMC  .OHMM        -999999.000                   : Mud cake resistivity
RMCT .DEGC        -999999.000                   : Mud cake sample temperature
TMAX .DEGC        -999999.000                   : Max recorded temperature
#
~Other Information
--------------------------------------------------------------------------------
1. Well Manager Version 13.07.1135.
2. Log correlated to drill bit depth at 15.11m.
3. Depth Offset for Resistivity Log DO = +1.5m.
--------------------------------------------------------------------------------
#
#          DEPT           SMTU           GRGC           VEC0           RILM           RILD            BIT
#
~ASCII Log Data
# ...
         29.200     395.273743     102.512421       5.103890       5.289269       5.326832       8.500000
         29.225     395.243744     104.417671       5.096678       5.275072       5.309381       8.500000
         29.250     395.037506     109.076195       5.089563       5.263896       5.294722       8.500000
         29.275     395.057495     112.779762       5.077646       5.254487       5.283056       8.500000
         29.300     395.253754     116.122589       5.088605       5.260496       5.279825       8.500000
         29.325     395.268738     118.860031       5.091326       5.252328       5.260851       8.500000
         29.350     394.288757     122.444496       5.096859       5.253552       5.255469       8.500000
         29.375     393.885010     121.028755       5.089987       5.249416       5.245878       8.500000
         29.400     393.291260     120.386513       5.104912       5.256190       5.242658       8.500000
         29.425     393.277496     119.074577       5.112512       5.257114       5.238112       8.500000
         29.450     393.306244     120.870964       5.135664       5.279603       5.260923       8.500000
         29.475     392.921265     116.611191       5.145986       5.289988       5.265458       8.500000
         29.500     392.353760     113.129959       5.174345       5.304785       5.262205       8.500000
         29.525     392.357513     110.316086       5.193578       5.319758       5.264771       8.500000
         29.550     392.118744     108.279747       5.216724       5.336483       5.268338       8.500000
         29.575     391.390015     105.248528       5.221835       5.349803       5.270424       8.500000
         29.600     391.382507     104.611626       5.235030       5.367960       5.284366       8.500000
         29.625     391.401245     105.628975       5.255140       5.383785       5.301754       8.500000
         29.650     390.142487     106.683571       5.261159       5.390315       5.307220       8.500000
         29.675     390.158752     108.335129       5.261624       5.398154       5.313519       8.500000
         29.700     390.001251     111.502670       5.260332       5.391248       5.316818       8.500000
         29.725     389.202515     112.074928       5.248728       5.363940       5.296114       8.500000
         29.750     389.191254     110.183990       5.209483       5.337164       5.278858       8.500000
         29.775     388.834991     106.991219       5.196955       5.331280       5.283401       8.500000
         29.800     388.092499     106.044167       5.186276       5.319255       5.275659       8.500000
         29.825     387.291260     101.783157       5.158613       5.294694       5.252989       8.500000
         29.850     386.356262      98.598801       5.144210       5.289493       5.257111       8.500000
         29.875     385.422485      96.575668       5.139564       5.285746       5.256489       8.500000
         29.900     384.207489      96.613754       5.118282       5.267038       5.235744       8.500000
         29.925     383.625000      95.817589       5.104210       5.249094       5.223638       8.500000
         29.950     383.260010      96.995514       5.089844       5.231387       5.208316       8.500000
         29.975     382.537506      98.059219       5.078643       5.222348       5.199815       8.500000
         30.000     382.260010      99.584137       5.059699       5.208434       5.195667       8.500000
         30.025     381.726257     101.412651       5.043770       5.187033       5.186485       8.500000
         30.050     381.286255     103.378365       5.028630       5.182360       5.187971       8.500000
         30.075     381.283752     105.899094       5.017962       5.179833       5.197423       8.500000
         30.100     380.238739     107.759262       5.006504       5.171540       5.192819       8.500000
         30.125     380.130005     110.041489       5.004421       5.162842       5.177730       8.500000
         30.150     379.693756     110.778435       4.991535       5.162687       5.183611       8.500000
         30.175     379.208740     112.957306       4.977248       5.151974       5.175307       8.500000
         30.200     379.211243     114.148949       4.994985       5.171309       5.184573       8.500000
         30.225     379.198761     116.750252       5.008031       5.181826       5.185127       8.500000
         30.250     377.345001     116.358521       5.035166       5.209908       5.208893       8.500000
         30.275     377.290009     114.772339       5.069394       5.235999       5.222449       8.500000
         30.300     376.487488     109.771721       5.094200       5.258970       5.237392       8.500000
         30.325     375.846252     103.970436       5.106621       5.263834       5.236300       8.500000
         30.350     374.618744     100.777153       5.111077       5.271963       5.249640       8.500000
         30.375     373.470001     100.648773       5.126544       5.285093       5.260677       8.500000
         30.400     372.652496     103.632301       5.142179       5.301625       5.273869       8.500000
         30.425     372.281250     104.647964       5.175253       5.330617       5.290420       8.500000
         30.450     371.549988     108.493523       5.187101       5.349815       5.302205       8.500000
         30.475     370.686249     109.182182       5.203540       5.368597       5.314978       8.500000
         30.500     369.415009     111.692116       5.208634       5.374979       5.319070       8.500000
         30.525     368.996246     109.235405       5.243592       5.404941       5.337750       8.500000
         30.550     367.806244     109.651443       5.263590       5.426876       5.357697       8.500000
         30.575     366.961243     108.470444       5.282304       5.440622       5.364866       8.500000
         30.600     366.140015     108.813004       5.295433       5.448878       5.359002       8.500000
         30.625     365.103760     107.486496       5.312013       5.451164       5.351585       8.500000
         30.650     364.747498     108.813759       5.311552       5.439491       5.345065       8.500000
         30.675     364.267487     112.214157       5.312874       5.431839       5.334399       8.500000
         30.700     364.136261     114.865425       5.311536       5.430666       5.333735       8.500000
         30.725     364.676239     115.659065       5.314057       5.430109       5.336047       8.500000
         30.750     365.091248     113.404541       5.311086       5.436998       5.344352       8.500000
         30.775     365.088745     113.657272       5.295627       5.428360       5.327385       8.500000
         30.800     365.113739     111.534927       5.284541       5.417604       5.325229       8.500000
         30.825     365.086243     109.809441       5.287940       5.420456       5.336337       8.500000
         30.850     365.291260     107.557953       5.281253       5.412959       5.329041       8.500000
         30.875     366.256256     109.360115       5.254974       5.387463       5.317605       8.500000
         30.900     366.321259     108.302773       5.248894       5.387231       5.329597       8.500000
         30.925     367.281250     107.763428       5.243625       5.378556       5.325540       8.500000
         30.950     368.227509     107.400185       5.218226       5.351849       5.308343       8.500000
         30.975     368.220001     109.586693       5.204537       5.340774       5.306837       8.500000
         31.000     368.225006     107.667397       5.187867       5.331482       5.300953       8.500000
         31.025     368.214996     104.628410       5.181171       5.311680       5.289559       8.500000
         31.050     368.216248     100.337204       5.167174       5.298600       5.286172       8.500000
         31.075     368.867493      98.577652       5.178576       5.306270       5.289242       8.500000
