~Version Information
VERS .            2.00                          : CWLS Log ASCII Standard - Version 2.00
WRAP .            NO                            : One line per depth step
#
~Well Information
#MNEM.UNIT        DATA                           : DESCRIPTION
#----.----        ----                           : -----------
STRT .M             -5.000                       : Start
STOP .M             43.475                       : Stop
STEP .M              0.025                       : Step increment
NULL .            -999.250                       : Null value
COMP .            IODP Expedition 347 Baltic Sea : Company
WELL .            BSB-7/Hole 65A                 : Well
FLD  .            Sweden                         : Field
PROV .            Sweden                         : Province
CTRY .            Sweden                         : State / Country
LOC  .                                           : Location
LOC2 .                                           : Location 2
SRVC .            Weatherford                    : Service company
UWI  .                                           : Unique Well ID
LATI .            55 28.094 N                    : Latitude
LONG .            15 28.631 E                    : Longitude
UTME .                                           : Universal Transverse Mercator Easting
UTMN .                                           : Universal Transverse Mercator Northing
DATE .            24-Oct-2013                    : Logging Date
#
~Curve Information
#MNEM.UNIT        API CODES                     : CURVE DESCRIPTION
#----.----        ---------                     : -----------------
DEPT .M           00 001 00 00                  : Logged depth
SMTU .LB          30 635 00 00                  : DST Uphole Tension
GRGC .GAPI        30 310 01 00                  : Gamma Ray
VEC0 .OHMM        07 120 00 00                  : Shallow Induction
RILM .OHMM        07 120 44 00                  : Medium Induction
RILD .OHMM        07 120 46 00                  : Deep Induction
BIT  .IN          70 282 00 00                  : Bit size
#
~Parameter Information
#MNEM.UNIT        VALUE                         : DESCRIPTION
#----.----        -----                         : -----------
RNID .                                          : Run ID
SON  .            50004126                      : Job Number
DREF .            GL                            : Depth reference
EREF .M                 0.000                   : Elevation of depth reference
GL   .M                 0.000                   : Ground elevation
RUN  .                  1                       : Run number
TDD  .M                77.000                   : TD (driller)
TDL  .M                42.900                   : TD (logger)
BS   .IN                8.500                   : Bit size
TIMC .                                          : Time circulation ended
TIML .                                          : Time logger at bottom
UNIT .              16104                       : Equipment ID
BASE .                                          : Equipment base location
ENG  .            C.Sedlatschek                 : Recording engineer
WIT  .            A.Fehr                        : Witnessed by
CSGT .                                          : Casing type
CSGS .IN                5.500                   : Casing size
CSGW .LB/FT            23.001                   : Casing weight
CSGD .M                15.100                   : Casing bottom (driller)
CSGL .M                15.100                   : Casing bottom (logger)
CSUP .M           -999999.000                   : Casing Stick Up GL
MUD  .            Sea Water                     : Mud type
MUDS .                                          : Mud sample source
MUDD .G/C3        -999999.000                   : Mud density
MUDV .CP          -999999.000                   : Mud viscosity
PH   .            -999999.000                   : Mud pH
FL   .ML/30MIN    -999999.000                   : Mud fluid loss rate
RM   .OHMM        -999999.000                   : Mud resistivity
RMT  .DEGC        -999999.000                   : Mud sample temperature
RMF  .OHMM        -999999.000                   : Mud filtrate resistivity
RMFT .DEGC        -999999.000                   : Mud filtrate sample temperature
RMC  .OHMM        -999999.000                   : Mud cake resistivity
RMCT .DEGC        -999999.000                   : Mud cake sample temperature
TMAX .DEGC        -999999.000                   : Max recorded temperature
#
~Other Information
--------------------------------------------------------------------------------
1. Well Manager Version 13.07.1135.
2. Log correlated to drill bit depth at 15.11m.
3. Depth Offset for Resistivity Log DO = +1.5m.
--------------------------------------------------------------------------------
#
#          DEPT           SMTU           GRGC           VEC0           RILM           RILD            BIT
#
~ASCII Log Data
# ...
         10.200     322.571259      30.984440    -999.250000    -999.250000    -999.250000       8.500000
         10.225     322.704987      31.052362    -999.250000    -999.250000    -999.250000       8.500000
         10.250     321.967499      30.867855    -999.250000    -999.250000    -999.250000       8.500000
         10.275     321.970001      30.213554    -999.250000    -999.250000    -999.250000       8.500000
         10.300     322.928741      29.039532    -999.250000    -999.250000    -999.250000       8.500000
         10.325     322.026245      28.114399    -999.250000    -999.250000    -999.250000       8.500000
         10.350     322.683746      26.674398    -999.250000    -999.250000    -999.250000       8.500000
         10.375     321.966248      26.122179    -999.250000    -999.250000    -999.250000       8.500000
         10.400     321.951263      25.532320    -999.250000    -999.250000    -999.250000       8.500000
         10.425     321.607513      25.275394    -999.250000    -999.250000    -999.250000       8.500000
         10.450     321.958740      24.586031    -999.250000    -999.250000    -999.250000       8.500000
         10.475     321.973755      24.853632    -999.250000    -999.250000    -999.250000       8.500000
         10.500     321.968750      25.405199    -999.250000    -999.250000    -999.250000       8.500000
         10.525     321.987488      27.014860    -999.250000    -999.250000    -999.250000       8.500000
         10.550     321.966248      28.006968    -999.250000    -999.250000    -999.250000       8.500000
         10.575     321.962494      29.299959    -999.250000    -999.250000    -999.250000       8.500000
         10.600     321.967499      29.313942    -999.250000    -999.250000    -999.250000       8.500000
         10.625     321.961243      28.777401    -999.250000    -999.250000    -999.250000       8.500000
         10.650     321.972504      26.839312    -999.250000    -999.250000    -999.250000       8.500000
         10.675     321.285004      25.554569    -999.250000    -999.250000    -999.250000       8.500000
         10.700     320.942505      24.777180    -999.250000    -999.250000    -999.250000       8.500000
         10.725     320.706238      24.470100    -999.250000    -999.250000    -999.250000       8.500000
         10.750     319.950012      24.897749    -999.250000    -999.250000    -999.250000       8.500000
         10.775     319.087494      24.634714    -999.250000    -999.250000    -999.250000       8.500000
         10.800     318.488739      24.452034    -999.250000    -999.250000    -999.250000       8.500000
         10.825     317.195007      22.909950    -999.250000    -999.250000    -999.250000       8.500000
         10.850     316.033752      21.917143    -999.250000    -999.250000    -999.250000       8.500000
         10.875     315.298737      20.557226    -999.250000    -999.250000    -999.250000       8.500000
         10.900     315.003754      19.821617    -999.250000    -999.250000    -999.250000       8.500000
         10.925     314.656250      18.903475    -999.250000    -999.250000    -999.250000       8.500000
         10.950     314.207489      19.086592    -999.250000    -999.250000    -999.250000       8.500000
         10.975     314.072510      19.637695    -999.250000    -999.250000    -999.250000       8.500000
         11.000     314.868744      20.848700    -999.250000    -999.250000    -999.250000       8.500000
         11.025     314.623749      23.711773    -999.250000    -999.250000    -999.250000       8.500000
         11.050     315.512512      26.757893    -999.250000    -999.250000    -999.250000       8.500000
         11.075     315.936249      29.328247    -999.250000    -999.250000    -999.250000       8.500000
         11.100     315.942505      30.613718    -999.250000    -999.250000    -999.250000       8.500000
         11.125     316.568756      31.608152    -999.250000    -999.250000    -999.250000       8.500000
         11.150     316.888763      32.602005    -999.250000    -999.250000    -999.250000       8.500000
         11.175     317.897491      34.513626    -999.250000    -999.250000    -999.250000       8.500000
         11.200     318.112488      35.798519    -999.250000    -999.250000    -999.250000       8.500000
         11.225     319.078735      37.083401    -999.250000    -999.250000    -999.250000       8.500000
         11.250     319.084991      36.632790    -999.250000    -999.250000    -999.250000       8.500000
         11.275     319.700012      34.529732    -999.250000    -999.250000    -999.250000       8.500000
         11.300     319.279999      30.040464    -999.250000    -999.250000    -999.250000       8.500000
         11.325     319.328735      25.634703    -999.250000    -999.250000    -999.250000       8.500000
         11.350     318.653748      21.780046    -999.250000    -999.250000    -999.250000       8.500000
         11.375     319.061249      19.842690    -999.250000    -999.250000    -999.250000       8.500000
         11.400     319.861237      19.374214    -999.250000    -999.250000    -999.250000       8.500000
         11.425     319.970001      21.842621    -999.250000    -999.250000    -999.250000       8.500000
         11.450     320.742493      25.514160    -999.250000    -999.250000    -999.250000       8.500000
         11.475     320.933746      28.735662    -999.250000    -999.250000    -999.250000       8.500000
         11.500     320.938751      30.673010    -999.250000    -999.250000    -999.250000       8.500000
         11.525     320.953735      30.546659    -999.250000    -999.250000    -999.250000       8.500000
         11.550     320.920013      28.850800    -999.250000    -999.250000    -999.250000       8.500000
         11.575     321.886261      26.052881    -999.250000    -999.250000    -999.250000       8.500000
         11.600     322.921265      24.585178    -999.250000    -999.250000    -999.250000       8.500000
         11.625     323.477509      23.116749    -999.250000    -999.250000    -999.250000       8.500000
         11.650     323.831238      22.243572    -999.250000    -999.250000    -999.250000       8.500000
         11.675     323.831238      20.635437    -999.250000    -999.250000    -999.250000       8.500000
         11.700     324.446259      20.950525    -999.250000    -999.250000    -999.250000       8.500000
         11.725     325.277496      22.404100    -999.250000    -999.250000    -999.250000       8.500000
         11.750     326.042511      26.243895    -999.250000    -999.250000    -999.250000       8.500000
         11.775     326.668762      29.562143    -999.250000    -999.250000    -999.250000       8.500000
         11.800     326.976257      32.180489    -999.250000    -999.250000    -999.250000       8.500000
         11.825     326.987488      32.795326    -999.250000    -999.250000    -999.250000       8.500000
         11.850     326.978760      31.743170    -999.250000    -999.250000    -999.250000       8.500000
         11.875     326.032501      29.171204    -999.250000    -999.250000    -999.250000       8.500000
         11.900     326.005005      26.775230    -999.250000    -999.250000    -999.250000       8.500000
         11.925     326.005005      25.814121    -999.250000    -999.250000    -999.250000       8.500000
         11.950     326.010010      25.719616    -999.250000    -999.250000    -999.250000       8.500000
         11.975     326.011261      25.699564    -999.250000    -999.250000    -999.250000       8.500000
         12.000     325.881256      26.001373    -999.250000    -999.250000    -999.250000       8.500000
         12.025     325.032501      27.537392    -999.250000    -999.250000    -999.250000       8.500000
         12.050     325.021240      29.268843    -999.250000    -999.250000    -999.250000       8.500000
         12.075     325.015015      30.575747    -999.250000    -999.250000    -999.250000       8.500000
