~Version Information
VERS .            2.00                          : CWLS Log ASCII Standard - Version 2.00
WRAP .            NO                            : One line per depth step
#
~Well Information
#MNEM.UNIT        DATA                           : DESCRIPTION
#----.----        ----                           : -----------
STRT .M             -5.000                       : Start
STOP .M             43.475                       : Stop
STEP .M              0.025                       : Step increment
NULL .            -999.250                       : Null value
COMP .            IODP Expedition 347 Baltic Sea : Company
WELL .            BSB-7/Hole 65A                 : Well
FLD  .            Sweden                         : Field
PROV .            Sweden                         : Province
CTRY .            Sweden                         : State / Country
LOC  .                                           : Location
LOC2 .                                           : Location 2
SRVC .            Weatherford                    : Service company
UWI  .                                           : Unique Well ID
LATI .            55 28.094 N                    : Latitude
LONG .            15 28.631 E                    : Longitude
UTME .                                           : Universal Transverse Mercator Easting
UTMN .                                           : Universal Transverse Mercator Northing
DATE .            24-Oct-2013                    : Logging Date
#
~Curve Information
#MNEM.UNIT        API CODES                     : CURVE DESCRIPTION
#----.----        ---------                     : -----------------
DEPT .M           00 001 00 00                  : Logged depth
SMTU .LB          30 635 00 00                  : DST Uphole Tension
GRGC .GAPI        30 310 01 00                  : Gamma Ray
VEC0 .OHMM        07 120 00 00                  : Shallow Induction
RILM .OHMM        07 120 44 00                  : Medium Induction
RILD .OHMM        07 120 46 00                  : Deep Induction
BIT  .IN          70 282 00 00                  : Bit size
#
~Parameter Information
#MNEM.UNIT        VALUE                         : DESCRIPTION
#----.----        -----                         : -----------
RNID .                                          : Run ID
SON  .            50004126                      : Job Number
DREF .            GL                            : Depth reference
EREF .M                 0.000                   : Elevation of depth reference
GL   .M                 0.000                   : Ground elevation
RUN  .                  1                       : Run number
TDD  .M                77.000                   : TD (driller)
TDL  .M                42.900                   : TD (logger)
BS   .IN                8.500                   : Bit size
TIMC .                                          : Time circulation ended
TIML .                                          : Time logger at bottom
UNIT .              16104                       : Equipment ID
BASE .                                          : Equipment base location
ENG  .            C.Sedlatschek                 : Recording engineer
WIT  .            A.Fehr                        : Witnessed by
CSGT .                                          : Casing type
CSGS .IN                5.500                   : Casing size
CSGW .LB/FT            23.001                   : Casing weight
CSGD .M                15.100                   : Casing bottom (driller)
CSGL .M                15.100                   : Casing bottom (logger)
CSUP .M           -999999.000                   : Casing Stick Up GL
MUD  .            Sea Water                     : Mud type
MUDS .                                          : Mud sample source
MUDD .G/C3        -999999.000                   : Mud density
MUDV .CP          -999999.000                   : Mud viscosity
PH   .            -999999.000                   : Mud pH
FL   .ML/30MIN    -999999.000                   : Mud fluid loss rate
RM   .OHMM        -999999.000                   : Mud resistivity
RMT  .DEGC        -999999.000                   : Mud sample temperature
RMF  .OHMM        -999999.000                   : Mud filtrate resistivity
RMFT .DEGC        -999999.000                   : Mud filtrate sample temperature
RMC  .OHMM        -999999.000                   : Mud cake resistivity
RMCT .DEGC        -999999.000                   : Mud cake sample temperature
TMAX .DEGC        -999999.000                   : Max recorded temperature
#
~Other Information
--------------------------------------------------------------------------------
1. Well Manager Version 13.07.1135.
2. Log correlated to drill bit depth at 15.11m.
3. Depth Offset for Resistivity Log DO = +1.5m.
--------------------------------------------------------------------------------
#
#          DEPT           SMTU           GRGC           VEC0           RILM           RILD            BIT
#
~ASCII Log Data
# ...
          2.600     293.868744      16.996622    -999.250000    -999.250000    -999.250000       8.500000
          2.625     292.741241      16.482460    -999.250000    -999.250000    -999.250000       8.500000
          2.650     292.727509      15.020208    -999.250000    -999.250000    -999.250000       8.500000
          2.675     292.723755      12.824101    -999.250000    -999.250000    -999.250000       8.500000
          2.700     293.100006      10.826413    -999.250000    -999.250000    -999.250000       8.500000
          2.725     293.882507       9.593916    -999.250000    -999.250000    -999.250000       8.500000
          2.750     293.885010       9.976255    -999.250000    -999.250000    -999.250000       8.500000
          2.775     293.877502      11.261103    -999.250000    -999.250000    -999.250000       8.500000
          2.800     293.890015      12.362030    -999.250000    -999.250000    -999.250000       8.500000
          2.825     293.921265      13.264538    -999.250000    -999.250000    -999.250000       8.500000
          2.850     294.278748      13.264539    -999.250000    -999.250000    -999.250000       8.500000
          2.875     294.859985      12.713871    -999.250000    -999.250000    -999.250000       8.500000
          2.900     295.851257      11.620378    -999.250000    -999.250000    -999.250000       8.500000
          2.925     295.946259      12.118884    -999.250000    -999.250000    -999.250000       8.500000
          2.950     296.459991      12.649738    -999.250000    -999.250000    -999.250000       8.500000
          2.975     296.459991      13.172757    -999.250000    -999.250000    -999.250000       8.500000
          3.000     296.147491      13.689487    -999.250000    -999.250000    -999.250000       8.500000
          3.025     296.742493      15.496647    -999.250000    -999.250000    -999.250000       8.500000
          3.050     296.757507      16.813137    -999.250000    -999.250000    -999.250000       8.500000
          3.075     296.744995      16.856377    -999.250000    -999.250000    -999.250000       8.500000
          3.100     297.727509      15.943954    -999.250000    -999.250000    -999.250000       8.500000
          3.125     297.873749      14.824265    -999.250000    -999.250000    -999.250000       8.500000
          3.150     298.970001      12.840713    -999.250000    -999.250000    -999.250000       8.500000
          3.175     298.958740      10.673605    -999.250000    -999.250000    -999.250000       8.500000
          3.200     297.733765       9.740234    -999.250000    -999.250000    -999.250000       8.500000
          3.225     297.741241      11.560044    -999.250000    -999.250000    -999.250000       8.500000
          3.250     297.763763      13.226297    -999.250000    -999.250000    -999.250000       8.500000
          3.275     297.763763      14.686698    -999.250000    -999.250000    -999.250000       8.500000
          3.300     298.937500      14.863091    -999.250000    -999.250000    -999.250000       8.500000
          3.325     298.962494      15.230201    -999.250000    -999.250000    -999.250000       8.500000
          3.350     298.953735      13.777501    -999.250000    -999.250000    -999.250000       8.500000
          3.375     298.723755      12.118949    -999.250000    -999.250000    -999.250000       8.500000
          3.400     297.714996      11.011064    -999.250000    -999.250000    -999.250000       8.500000
          3.425     297.714996      11.760148    -999.250000    -999.250000    -999.250000       8.500000
          3.450     298.236237      13.265091    -999.250000    -999.250000    -999.250000       8.500000
          3.475     298.968750      15.307006    -999.250000    -999.250000    -999.250000       8.500000
          3.500     299.387512      17.869860    -999.250000    -999.250000    -999.250000       8.500000
          3.525     299.929993      19.332037    -999.250000    -999.250000    -999.250000       8.500000
          3.550     299.071259      20.587194    -999.250000    -999.250000    -999.250000       8.500000
          3.575     299.928741      20.771410    -999.250000    -999.250000    -999.250000       8.500000
          3.600     299.922485      20.550180    -999.250000    -999.250000    -999.250000       8.500000
          3.625     299.924988      19.462763    -999.250000    -999.250000    -999.250000       8.500000
          3.650     299.924988      19.476017    -999.250000    -999.250000    -999.250000       8.500000
          3.675     299.924988      19.344049    -999.250000    -999.250000    -999.250000       8.500000
          3.700     300.037506      19.643667    -999.250000    -999.250000    -999.250000       8.500000
          3.725     300.873749      19.429779    -999.250000    -999.250000    -999.250000       8.500000
          3.750     300.858765      19.399881    -999.250000    -999.250000    -999.250000       8.500000
          3.775     300.857513      17.785486    -999.250000    -999.250000    -999.250000       8.500000
          3.800     301.375000      16.081903    -999.250000    -999.250000    -999.250000       8.500000
          3.825     301.820007      14.261821    -999.250000    -999.250000    -999.250000       8.500000
          3.850     301.383759      14.210402    -999.250000    -999.250000    -999.250000       8.500000
          3.875     301.827515      14.762697    -999.250000    -999.250000    -999.250000       8.500000
          3.900     301.828735      15.814498    -999.250000    -999.250000    -999.250000       8.500000
          3.925     301.834991      16.206800    -999.250000    -999.250000    -999.250000       8.500000
          3.950     302.315002      16.354530    -999.250000    -999.250000    -999.250000       8.500000
          3.975     302.315002      16.002150    -999.250000    -999.250000    -999.250000       8.500000
          4.000     302.807495      15.273799    -999.250000    -999.250000    -999.250000       8.500000
          4.025     303.313751      14.956732    -999.250000    -999.250000    -999.250000       8.500000
          4.050     304.023743      14.602100    -999.250000    -999.250000    -999.250000       8.500000
          4.075     304.002502      13.919081    -999.250000    -999.250000    -999.250000       8.500000
          4.100     304.021240      12.701216    -999.250000    -999.250000    -999.250000       8.500000
          4.125     304.041260      12.371802    -999.250000    -999.250000    -999.250000       8.500000
          4.150     304.036255      12.554482    -999.250000    -999.250000    -999.250000       8.500000
          4.175     304.472504      13.779036    -999.250000    -999.250000    -999.250000       8.500000
          4.200     304.947510      15.576550    -999.250000    -999.250000    -999.250000       8.500000
          4.225     304.136261      18.110477    -999.250000    -999.250000    -999.250000       8.500000
          4.250     304.458740      20.255001    -999.250000    -999.250000    -999.250000       8.500000
          4.275     304.135010      21.276262    -999.250000    -999.250000    -999.250000       8.500000
          4.300     304.026245      21.452751    -999.250000    -999.250000    -999.250000       8.500000
          4.325     304.012512      20.242550    -999.250000    -999.250000    -999.250000       8.500000
          4.350     304.017487      19.582062    -999.250000    -999.250000    -999.250000       8.500000
          4.375     303.950012      18.870090    -999.250000    -999.250000    -999.250000       8.500000
          4.400     302.795013      18.891973    -999.250000    -999.250000    -999.250000       8.500000
          4.425     303.287506      18.547771    -999.250000    -999.250000    -999.250000       8.500000
          4.450     303.287506      19.046486    -999.250000    -999.250000    -999.250000       8.500000
          4.475     302.798737      18.076393    -999.250000    -999.250000    -999.250000       8.500000
