~Version Information
VERS .            2.00                          : CWLS Log ASCII Standard - Version 2.00
WRAP .            NO                            : One line per depth step
#
~Well Information
#MNEM.UNIT        DATA                           : DESCRIPTION
#----.----        ----                           : -----------
STRT .M             -5.000                       : Start
STOP .M             43.475                       : Stop
STEP .M              0.025                       : Step increment
NULL .            -999.250                       : Null value
COMP .            IODP Expedition 347 Baltic Sea : Company
WELL .            BSB-7/Hole 65A                 : Well
FLD  .            Sweden                         : Field
PROV .            Sweden                         : Province
CTRY .            Sweden                         : State / Country
LOC  .                                           : Location
LOC2 .                                           : Location 2
SRVC .            Weatherford                    : Service company
UWI  .                                           : Unique Well ID
LATI .            55 28.094 N                    : Latitude
LONG .            15 28.631 E                    : Longitude
UTME .                                           : Universal Transverse Mercator Easting
UTMN .                                           : Universal Transverse Mercator Northing
DATE .            24-Oct-2013                    : Logging Date
#
~Curve Information
#MNEM.UNIT        API CODES                     : CURVE DESCRIPTION
#----.----        ---------                     : -----------------
DEPT .M           00 001 00 00                  : Logged depth
SMTU .LB          30 635 00 00                  : DST Uphole Tension
GRGC .GAPI        30 310 01 00                  : Gamma Ray
VEC0 .OHMM        07 120 00 00                  : Shallow Induction
RILM .OHMM        07 120 44 00                  : Medium Induction
RILD .OHMM        07 120 46 00                  : Deep Induction
BIT  .IN          70 282 00 00                  : Bit size
#
~Parameter Information
#MNEM.UNIT        VALUE                         : DESCRIPTION
#----.----        -----                         : -----------
RNID .                                          : Run ID
SON  .            50004126                      : Job Number
DREF .            GL                            : Depth reference
EREF .M                 0.000                   : Elevation of depth reference
GL   .M                 0.000                   : Ground elevation
RUN  .                  1                       : Run number
TDD  .M                77.000                   : TD (driller)
TDL  .M                42.900                   : TD (logger)
BS   .IN                8.500                   : Bit size
TIMC .                                          : Time circulation ended
TIML .                                          : Time logger at bottom
UNIT .              16104                       : Equipment ID
BASE .                                          : Equipment base location
ENG  .            C.Sedlatschek                 : Recording engineer
WIT  .            A.Fehr                        : Witnessed by
CSGT .                                          : Casing type
CSGS .IN                5.500                   : Casing size
CSGW .LB/FT            23.001                   : Casing weight
CSGD .M                15.100                   : Casing bottom (driller)
CSGL .M                15.100                   : Casing bottom (logger)
CSUP .M           -999999.000                   : Casing Stick Up GL
MUD  .            Sea Water                     : Mud type
MUDS .                                          : Mud sample source
MUDD .G/C3        -999999.000                   : Mud density
MUDV .CP          -999999.000                   : Mud viscosity
PH   .            -999999.000                   : Mud pH
FL   .ML/30MIN    -999999.000                   : Mud fluid loss rate
RM   .OHMM        -999999.000                   : Mud resistivity
RMT  .DEGC        -999999.000                   : Mud sample temperature
RMF  .OHMM        -999999.000                   : Mud filtrate resistivity
RMFT .DEGC        -999999.000                   : Mud filtrate sample temperature
RMC  .OHMM        -999999.000                   : Mud cake resistivity
RMCT .DEGC        -999999.000                   : Mud cake sample temperature
TMAX .DEGC        -999999.000                   : Max recorded temperature
#
~Other Information
--------------------------------------------------------------------------------
1. Well Manager Version 13.07.1135.
2. Log correlated to drill bit depth at 15.11m.
3. Depth Offset for Resistivity Log DO = +1.5m.
--------------------------------------------------------------------------------
#
#          DEPT           SMTU           GRGC           VEC0           RILM           RILD            BIT
#
~ASCII Log Data
# ...
          8.300     314.981262      24.537083    -999.250000    -999.250000    -999.250000       8.500000
          8.325     314.983765      23.183754    -999.250000    -999.250000    -999.250000       8.500000
          8.350     314.983765      22.238920    -999.250000    -999.250000    -999.250000       8.500000
          8.375     314.992493      20.366615    -999.250000    -999.250000    -999.250000       8.500000
          8.400     314.994995      19.963194    -999.250000    -999.250000    -999.250000       8.500000
          8.425     314.101257      19.953939    -999.250000    -999.250000    -999.250000       8.500000
          8.450     314.051239      21.306757    -999.250000    -999.250000    -999.250000       8.500000
          8.475     314.070007      21.884481    -999.250000    -999.250000    -999.250000       8.500000
          8.500     314.058746      22.103106    -999.250000    -999.250000    -999.250000       8.500000
          8.525     314.575012      21.219740    -999.250000    -999.250000    -999.250000       8.500000
          8.550     315.012512      19.458670    -999.250000    -999.250000    -999.250000       8.500000
          8.575     314.075012      17.806528    -999.250000    -999.250000    -999.250000       8.500000
          8.600     314.510010      16.705709    -999.250000    -999.250000    -999.250000       8.500000
          8.625     314.996246      16.889629    -999.250000    -999.250000    -999.250000       8.500000
          8.650     315.007507      18.107119    -999.250000    -999.250000    -999.250000       8.500000
          8.675     315.001251      18.957714    -999.250000    -999.250000    -999.250000       8.500000
          8.700     314.981262      20.085871    -999.250000    -999.250000    -999.250000       8.500000
          8.725     315.897491      21.280912    -999.250000    -999.250000    -999.250000       8.500000
          8.750     315.928741      22.475739    -999.250000    -999.250000    -999.250000       8.500000
          8.775     315.398743      22.542044    -999.250000    -999.250000    -999.250000       8.500000
          8.800     315.422485      22.057827    -999.250000    -999.250000    -999.250000       8.500000
          8.825     314.357513      21.297220    -999.250000    -999.250000    -999.250000       8.500000
          8.850     314.027496      20.653866    -999.250000    -999.250000    -999.250000       8.500000
          8.875     314.041260      19.767353    -999.250000    -999.250000    -999.250000       8.500000
          8.900     313.522491      19.198250    -999.250000    -999.250000    -999.250000       8.500000
          8.925     312.792511      19.729822    -999.250000    -999.250000    -999.250000       8.500000
          8.950     312.811249      21.237085    -999.250000    -999.250000    -999.250000       8.500000
          8.975     312.545013      23.254000    -999.250000    -999.250000    -999.250000       8.500000
          9.000     311.808746      24.870190    -999.250000    -999.250000    -999.250000       8.500000
          9.025     310.964996      26.630238    -999.250000    -999.250000    -999.250000       8.500000
          9.050     311.458740      28.207968    -999.250000    -999.250000    -999.250000       8.500000
          9.075     311.907501      27.800497    -999.250000    -999.250000    -999.250000       8.500000
          9.100     311.387512      26.332933    -999.250000    -999.250000    -999.250000       8.500000
          9.125     311.263763      24.590740    -999.250000    -999.250000    -999.250000       8.500000
          9.150     311.898743      23.585108    -999.250000    -999.250000    -999.250000       8.500000
          9.175     311.918762      22.762445    -999.250000    -999.250000    -999.250000       8.500000
          9.200     312.422485      22.948339    -999.250000    -999.250000    -999.250000       8.500000
          9.225     312.817505      23.499369    -999.250000    -999.250000    -999.250000       8.500000
          9.250     312.793762      24.330528    -999.250000    -999.250000    -999.250000       8.500000
          9.275     313.285004      24.792454    -999.250000    -999.250000    -999.250000       8.500000
          9.300     314.061249      24.887272    -999.250000    -999.250000    -999.250000       8.500000
          9.325     314.786255      24.151299    -999.250000    -999.250000    -999.250000       8.500000
          9.350     315.008759      22.866850    -999.250000    -999.250000    -999.250000       8.500000
          9.375     314.996246      21.602480    -999.250000    -999.250000    -999.250000       8.500000
          9.400     315.148743      20.155138    -999.250000    -999.250000    -999.250000       8.500000
          9.425     315.956238      18.890326    -999.250000    -999.250000    -999.250000       8.500000
          9.450     315.322510      18.706770    -999.250000    -999.250000    -999.250000       8.500000
          9.475     315.019989      19.990633    -999.250000    -999.250000    -999.250000       8.500000
          9.500     315.005005      22.075329    -999.250000    -999.250000    -999.250000       8.500000
          9.525     315.733765      24.709816    -999.250000    -999.250000    -999.250000       8.500000
          9.550     315.540009      26.467987    -999.250000    -999.250000    -999.250000       8.500000
          9.575     315.954987      27.366941    -999.250000    -999.250000    -999.250000       8.500000
          9.600     315.663757      26.797602    -999.250000    -999.250000    -999.250000       8.500000
          9.625     314.998749      25.042782    -999.250000    -999.250000    -999.250000       8.500000
          9.650     314.989990      22.287117    -999.250000    -999.250000    -999.250000       8.500000
          9.675     314.767487      19.998631    -999.250000    -999.250000    -999.250000       8.500000
          9.700     314.328735      19.361546    -999.250000    -999.250000    -999.250000       8.500000
          9.725     314.904999      19.189159    -999.250000    -999.250000    -999.250000       8.500000
          9.750     315.636261      18.818905    -999.250000    -999.250000    -999.250000       8.500000
          9.775     315.950012      18.267662    -999.250000    -999.250000    -999.250000       8.500000
          9.800     316.907501      19.272503    -999.250000    -999.250000    -999.250000       8.500000
          9.825     317.348755      20.111454    -999.250000    -999.250000    -999.250000       8.500000
          9.850     318.690002      21.153404    -999.250000    -999.250000    -999.250000       8.500000
          9.875     319.877502      20.826250    -999.250000    -999.250000    -999.250000       8.500000
          9.900     321.286255      20.213659    -999.250000    -999.250000    -999.250000       8.500000
          9.925     322.046265      17.971661    -999.250000    -999.250000    -999.250000       8.500000
          9.950     322.946259      15.770095    -999.250000    -999.250000    -999.250000       8.500000
          9.975     322.913757      13.942267    -999.250000    -999.250000    -999.250000       8.500000
         10.000     323.292511      14.683920    -999.250000    -999.250000    -999.250000       8.500000
         10.025     322.921265      17.444386    -999.250000    -999.250000    -999.250000       8.500000
         10.050     322.922485      22.401985    -999.250000    -999.250000    -999.250000       8.500000
         10.075     322.913757      26.074696    -999.250000    -999.250000    -999.250000       8.500000
         10.100     322.931244      29.257441    -999.250000    -999.250000    -999.250000       8.500000
         10.125     322.941254      30.419178    -999.250000    -999.250000    -999.250000       8.500000
         10.150     323.301239      31.213802    -999.250000    -999.250000    -999.250000       8.500000
         10.175     322.910004      30.915564    -999.250000    -999.250000    -999.250000       8.500000
