~Version Information
VERS .            2.00                          : CWLS Log ASCII Standard - Version 2.00
WRAP .            NO                            : One line per depth step
#
~Well Information
#MNEM.UNIT        DATA                           : DESCRIPTION
#----.----        ----                           : -----------
STRT .M             -5.000                       : Start
STOP .M             43.475                       : Stop
STEP .M              0.025                       : Step increment
NULL .            -999.250                       : Null value
COMP .            IODP Expedition 347 Baltic Sea : Company
WELL .            BSB-7/Hole 65A                 : Well
FLD  .            Sweden                         : Field
PROV .            Sweden                         : Province
CTRY .            Sweden                         : State / Country
LOC  .                                           : Location
LOC2 .                                           : Location 2
SRVC .            Weatherford                    : Service company
UWI  .                                           : Unique Well ID
LATI .            55 28.094 N                    : Latitude
LONG .            15 28.631 E                    : Longitude
UTME .                                           : Universal Transverse Mercator Easting
UTMN .                                           : Universal Transverse Mercator Northing
DATE .            24-Oct-2013                    : Logging Date
#
~Curve Information
#MNEM.UNIT        API CODES                     : CURVE DESCRIPTION
#----.----        ---------                     : -----------------
DEPT .M           00 001 00 00                  : Logged depth
SMTU .LB          30 635 00 00                  : DST Uphole Tension
GRGC .GAPI        30 310 01 00                  : Gamma Ray
VEC0 .OHMM        07 120 00 00                  : Shallow Induction
RILM .OHMM        07 120 44 00                  : Medium Induction
RILD .OHMM        07 120 46 00                  : Deep Induction
BIT  .IN          70 282 00 00                  : Bit size
#
~Parameter Information
#MNEM.UNIT        VALUE                         : DESCRIPTION
#----.----        -----                         : -----------
RNID .                                          : Run ID
SON  .            50004126                      : Job Number
DREF .            GL                            : Depth reference
EREF .M                 0.000                   : Elevation of depth reference
GL   .M                 0.000                   : Ground elevation
RUN  .                  1                       : Run number
TDD  .M                77.000                   : TD (driller)
TDL  .M                42.900                   : TD (logger)
BS   .IN                8.500                   : Bit size
TIMC .                                          : Time circulation ended
TIML .                                          : Time logger at bottom
UNIT .              16104                       : Equipment ID
BASE .                                          : Equipment base location
ENG  .            C.Sedlatschek                 : Recording engineer
WIT  .            A.Fehr                        : Witnessed by
CSGT .                                          : Casing type
CSGS .IN                5.500                   : Casing size
CSGW .LB/FT            23.001                   : Casing weight
CSGD .M                15.100                   : Casing bottom (driller)
CSGL .M                15.100                   : Casing bottom (logger)
CSUP .M           -999999.000                   : Casing Stick Up GL
MUD  .            Sea Water                     : Mud type
MUDS .                                          : Mud sample source
MUDD .G/C3        -999999.000                   : Mud density
MUDV .CP          -999999.000                   : Mud viscosity
PH   .            -999999.000                   : Mud pH
FL   .ML/30MIN    -999999.000                   : Mud fluid loss rate
RM   .OHMM        -999999.000                   : Mud resistivity
RMT  .DEGC        -999999.000                   : Mud sample temperature
RMF  .OHMM        -999999.000                   : Mud filtrate resistivity
RMFT .DEGC        -999999.000                   : Mud filtrate sample temperature
RMC  .OHMM        -999999.000                   : Mud cake resistivity
RMCT .DEGC        -999999.000                   : Mud cake sample temperature
TMAX .DEGC        -999999.000                   : Max recorded temperature
#
~Other Information
--------------------------------------------------------------------------------
1. Well Manager Version 13.07.1135.
2. Log correlated to drill bit depth at 15.11m.
3. Depth Offset for Resistivity Log DO = +1.5m.
--------------------------------------------------------------------------------
#
#          DEPT           SMTU           GRGC           VEC0           RILM           RILD            BIT
#
~ASCII Log Data
# ...
         33.000     346.201263     107.542839       5.455944       6.048808       6.822155       8.500000
         33.025     345.398743     105.325737       5.492568       6.096848       6.865259       8.500000
         33.050     345.261261     108.923027       5.485444       6.125571       6.894568       8.500000
         33.075     344.596252     111.355423       5.485762       6.150618       6.907628       8.500000
         33.100     344.000000     115.012451       5.500440       6.203907       6.944003       8.500000
         33.125     344.010010     118.191696       5.543752       6.281581       6.991688       8.500000
         33.150     344.007507     121.687660       5.568503       6.360993       7.056619       8.500000
         33.175     344.802490     121.041893       5.607140       6.430310       7.094563       8.500000
         33.200     345.714996     117.293877       5.639787       6.507121       7.142064       8.500000
         33.225     345.507507     111.642334       5.660762       6.551561       7.157053       8.500000
         33.250     346.183746     107.601814       5.676875       6.603391       7.180414       8.500000
         33.275     346.191254     102.483025       5.704102       6.658487       7.190293       8.500000
         33.300     346.206238     100.736343       5.723430       6.725749       7.214740       8.500000
         33.325     347.137512      98.033096       5.736797       6.751210       7.185446       8.500000
         33.350     347.133759      99.506996       5.744702       6.777946       7.169100       8.500000
         33.375     347.497498      99.676514       5.764232       6.789084       7.126866       8.500000
         33.400     348.103760     103.075760       5.770560       6.779271       7.044436       8.500000
         33.425     347.325012     103.527794       5.768462       6.728204       6.924970       8.500000
         33.450     347.142487     107.771553       5.751773       6.695751       6.846973       8.500000
         33.475     347.154999     110.773193       5.744018       6.658081       6.753122       8.500000
         33.500     346.799988     114.234291       5.712602       6.599240       6.664039       8.500000
         33.525     347.137512     112.537689       5.672266       6.517467       6.565762       8.500000
         33.550     347.152496     110.110847       5.611696       6.446102       6.480053       8.500000
         33.575     346.209991     106.525864       5.549299       6.358596       6.376054       8.500000
         33.600     346.221252     102.214493       5.461619       6.260722       6.279615       8.500000
         33.625     345.251251      97.448738       5.365545       6.135936       6.160480       8.500000
         33.650     344.637512      93.840866       5.250997       6.009037       6.047486       8.500000
         33.675     343.393738      92.409088       5.149355       5.877779       5.931987       8.500000
         33.700     343.078735      88.687584       5.067352       5.779915       5.843726       8.500000
         33.725     343.077515      84.054672       4.993365       5.673235       5.746524       8.500000
         33.750     343.061249      78.731941       4.904584       5.570157       5.645141       8.500000
         33.775     343.076263      76.886032       4.843835       5.488641       5.566218       8.500000
         33.800     343.086243      76.111443       4.795002       5.416776       5.501164       8.500000
         33.825     343.083740      74.282784       4.760708       5.342847       5.437409       8.500000
         33.850     343.067505      72.328156       4.713994       5.281008       5.376215       8.500000
         33.875     343.051239      70.061569       4.674641       5.224723       5.321226       8.500000
         33.900     343.045013      67.510719       4.630439       5.167689       5.269935       8.500000
         33.925     343.056244      63.951786       4.590279       5.121010       5.230680       8.500000
         33.950     343.073761      63.081821       4.537878       5.081240       5.208288       8.500000
         33.975     343.073761      63.551594       4.501424       5.045463       5.195850       8.500000
         34.000     343.047485      66.965820       4.476223       5.034012       5.201177       8.500000
         34.025     343.071259      70.115982       4.453238       5.014575       5.193441       8.500000
         34.050     343.066254      72.245956       4.430361       5.006215       5.193276       8.500000
         34.075     343.077515      72.179932       4.403676       4.986036       5.172976       8.500000
         34.100     343.167511      70.442451       4.391242       4.976318       5.157174       8.500000
         34.125     343.051239      68.397690       4.386271       4.960481       5.143661       8.500000
         34.150     343.073761      66.569984       4.390941       4.973404       5.153328       8.500000
         34.175     343.042511      67.962479       4.418736       5.003907       5.184377       8.500000
         34.200     343.052490      70.373367       4.462952       5.047170       5.221541       8.500000
         34.225     342.641235      74.015114       4.513963       5.099661       5.267452       8.500000
         34.250     342.092499      76.255898       4.578020       5.182725       5.349210       8.500000
         34.275     342.103760      78.244255       4.658097       5.271288       5.438234       8.500000
         34.300     342.086243      77.449875       4.741829       5.374032       5.522390       8.500000
         34.325     342.081238      75.598480       4.838474       5.487933       5.631604       8.500000
         34.350     342.097504      75.483696       4.921277       5.614376       5.764874       8.500000
         34.375     342.111237      76.962997       5.006957       5.739598       5.896729       8.500000
         34.400     342.100006      78.558098       5.101573       5.876932       6.054785       8.500000
         34.425     342.098755      80.298126       5.203578       6.017909       6.226636       8.500000
         34.450     342.093750      84.008232       5.295975       6.167100       6.402248       8.500000
         34.475     342.112488      85.668350       5.370165       6.280984       6.550203       8.500000
         34.500     341.853760      86.158562       5.445042       6.373839       6.660126       8.500000
         34.525     341.165009      86.453468       5.493483       6.446776       6.755833       8.500000
         34.550     341.038757      86.014603       5.527920       6.499478       6.850681       8.500000
         34.575     340.212494      85.644173       5.547904       6.533440       6.916480       8.500000
         34.600     339.756256      86.253754       5.587692       6.583514       6.978568       8.500000
         34.625     339.297485      90.779579       5.651675       6.668967       7.088224       8.500000
         34.650     340.218750      94.254066       5.710998       6.751545       7.187042       8.500000
         34.675     339.362488      96.179230       5.728312       6.782437       7.247589       8.500000
         34.700     338.512512      96.940018       5.754558       6.827150       7.332025       8.500000
         34.725     338.084991      98.229149       5.787604       6.871015       7.426669       8.500000
         34.750     337.162506      96.865837       5.787172       6.890717       7.509418       8.500000
         34.775     337.108765      95.930099       5.804705       6.916867       7.589707       8.500000
         34.800     337.119995      98.482010       5.839986       6.963507       7.665664       8.500000
         34.825     337.107513     102.631836       5.836295       6.958765       7.708151       8.500000
         34.850     337.024994     104.687447       5.827880       6.942316       7.749035       8.500000
         34.875     336.084991     106.931290       5.797318       6.901231       7.755723       8.500000
